$GPGGA,213305.000,4735.5714,N,12222.9124,W,1,05,2.17,-9.8,M,-17.4,M,,*77
$GPGSA,A,3,12,19,25,02,06,,,,,,,,2.37,2.17,0.95*04
$GPGSV,3,1,10,12,78,174,27,02,75,088,33,25,57,300,34,06,33,052,28*7B
$GPGSV,3,2,10,29,33,276,,05,19,150,,19,14,081,17,31,12,327,*7D
$GPGSV,3,3,10,24,10,201,,34,,,*4B
$GPRMC,213305.000,A,4735.5714,N,12222.9124,W,0.29,198.66,240716,,,A*7A
$GPVTG,198.66,T,,M,0.29,N,0.54,K,A*37
$GPGGA,213306.000,4735.5713,N,12222.9124,W,1,05,2.17,-9.8,M,-17.4,M,,*73
$GPGSA,A,3,12,19,25,02,06,,,,,,,,2.37,2.17,0.95*04
$GPRMC,213306.000,A,4735.5713,N,12222.9124,W,0.39,188.10,240716,,,A*7F
$GPVTG,188.10,T,,M,0.39,N,0.73,K,A*33
$GPGGA,213307.000,4735.5712,N,12222.9125,W,1,05,2.17,-9.8,M,-17.4,M,,*72
$GPGSA,A,3,12,19,25,02,06,,,,,,,,2.37,2.17,0.95*04
$GPRMC,213307.000,A,4735.5712,N,12222.9125,W,0.22,199.15,240716,,,A*71
$GPVTG,199.15,T,,M,0.22,N,0.42,K,A*3E
$GPGGA,213308.000,4735.5711,N,12222.9125,W,1,05,2.17,-9.8,M,-17.4,M,,*7E
$GPGSA,A,3,12,19,25,02,06,,,,,,,,2.37,2.17,0.95*04
$GPRMC,213308.000,A,4735.5711,N,12222.9125,W,0.28,211.50,240716,,,A*75
$GPVTG,211.50,T,,M,0.28,N,0.52,K,A*37
$GPGGA,213309.000,4735.5711,N,12222.9125,W,1,05,2.17,-9.8,M,-17.4,M,,*7F
$GPGSA,A,3,12,19,25,02,06,,,,,,,,2.37,2.17,0.95*04
$GPRMC,213309.000,A,4735.5711,N,12222.9125,W,0.19,197.88,240716,,,A*7E
$GPVTG,197.88,T,,M,0.19,N,0.36,K,A*3F
$GPGGA,213310.000,4735.5710,N,12222.9126,W,1,05,2.17,-9.8,M,-17.4,M,,*75
$GPGSA,A,3,12,19,25,02,06,,,,,,,,2.37,2.17,0.95*04
$GPGSV,3,1,10,12,78,174,27,02,75,088,33,25,57,300,33,06,33,052,29*7D
$GPGSV,3,2,10,29,33,276,,05,19,150,,19,14,081,15,31,12,327,*7F
$GPGSV,3,3,10,24,10,201,,35,,,*4A
$GPRMC,213310.000,A,4735.5710,N,12222.9126,W,0.13,229.39,240716,,,A*72
$GPVTG,229.39,T,,M,0.13,N,0.24,K,A*3A
$GPGGA,213311.000,4735.5710,N,12222.9126,W,1,05,2.17,-9.8,M,-17.4,M,,*74
$GPGSA,A,3,12,19,25,02,06,,,,,,,,2.37,2.17,0.95*04
$GPRMC,213311.000,A,4735.5710,N,12222.9126,W,0.06,186.60,240716,,,A*7D
$GPVTG,186.60,T,,M,0.06,N,0.12,K,A*31
$GPGGA,213312.000,4735.5710,N,12222.9126,W,1,06,1.68,-9.8,M,-17.4,M,,*7F
$GPGSA,A,3,12,19,25,31,02,06,,,,,,,1.92,1.68,0.91*05
$GPRMC,213312.000,A,4735.5710,N,12222.9126,W,0.14,179.14,240716,,,A*7E
$GPVTG,179.14,T,,M,0.14,N,0.27,K,A*37
$GPGGA,213313.000,4735.5709,N,12222.9126,W,1,05,2.17,-9.8,M,-17.4,M,,*7E
$GPGSA,A,3,12,19,25,02,06,,,,,,,,2.37,2.17,0.95*04
$GPRMC,213313.000,A,4735.5709,N,12222.9126,W,0.15,158.30,240716,,,A*73
$GPVTG,158.30,T,,M,0.15,N,0.28,K,A*3C
$GPGGA,213314.000,4735.5709,N,12222.9126,W,1,05,2.17,-9.8,M,-17.4,M,,*79
$GPGSA,A,3,12,19,25,02,06,,,,,,,,2.37,2.17,0.95*04
$GPRMC,213314.000,A,4735.5709,N,12222.9126,W,0.34,127.58,240716,,,A*71
$GPVTG,127.58,T,,M,0.34,N,0.62,K,A*37
$GPGGA,213315.000,4735.5708,N,12222.9124,W,1,05,2.17,-9.8,M,-17.4,M,,*7B
$GPGSA,A,3,12,19,25,02,06,,,,,,,,2.37,2.17,0.95*04
$GPGSV,3,1,10,12,78,174,28,02,75,088,32,25,57,300,33,06,33,052,31*7A
$GPGSV,3,2,10,29,33,276,,05,19,150,,19,14,082,15,31,12,327,*7C
$GPGSV,3,3,10,24,10,201,,36,,,*49
$GPRMC,213315.000,A,4735.5708,N,12222.9124,W,0.36,114.31,240716,,,A*7E
$GPVTG,114.31,T,,M,0.36,N,0.67,K,A*3F
$GPGGA,213316.000,4735.5708,N,12222.9123,W,1,05,2.17,-9.8,M,-17.4,M,,*7F
$GPGSA,A,3,12,19,25,02,06,,,,,,,,2.37,2.17,0.95*04
$GPRMC,213316.000,A,4735.5708,N,12222.9123,W,0.37,118.10,240716,,,A*74
$GPVTG,118.10,T,,M,0.37,N,0.69,K,A*3F
$GPGGA,213317.000,4735.5707,N,12222.9122,W,1,05,2.17,-9.8,M,-17.4,M,,*70
$GPGSA,A,3,12,19,25,02,06,,,,,,,,2.37,2.17,0.95*04
$GPRMC,213317.000,A,4735.5707,N,12222.9122,W,0.31,145.09,240716,,,A*7D
$GPVTG,145.09,T,,M,0.31,N,0.58,K,A*3B
$GPGGA,213318.000,4735.5706,N,12222.9121,W,1,05,2.17,-9.8,M,-17.4,M,,*7D
$GPGSA,A,3,12,19,25,02,06,,,,,,,,2.37,2.17,0.95*04
$GPRMC,213318.000,A,4735.5706,N,12222.9121,W,0.32,143.72,240716,,,A*79
$GPVTG,143.72,T,,M,0.32,N,0.59,K,A*33
$GPGGA,213319.000,4735.5706,N,12222.9120,W,1,05,2.17,-9.8,M,-17.4,M,,*7D
$GPGSA,A,3,12,19,25,02,06,,,,,,,,2.37,2.17,0.95*04
$GPRMC,213319.000,A,4735.5706,N,12222.9120,W,0.15,164.90,240716,,,A*75
$GPVTG,164.90,T,,M,0.15,N,0.28,K,A*39
$GPGGA,213320.000,4735.5705,N,12222.9120,W,1,05,2.17,-9.8,M,-17.4,M,,*74
$GPGSA,A,3,12,19,25,02,06,,,,,,,,2.37,2.17,0.95*04
$GPGSV,3,1,10,12,78,174,26,02,75,088,32,25,57,300,33,06,33,052,30*75
$GPGSV,3,2,10,29,33,276,,05,19,150,,19,14,082,13,31,12,327,*7A
$GPGSV,3,3,10,24,10,201,,38,,,*47
$GPRMC,213320.000,A,4735.5705,N,12222.9120,W,0.03,207.75,240716,,,A*76
$GPVTG,207.75,T,,M,0.03,N,0.05,K,A*3C
$GPGGA,213321.000,4735.5705,N,12222.9120,W,1,05,2.17,-9.8,M,-17.4,M,,*75
$GPGSA,A,3,12,19,25,02,06,,,,,,,,2.37,2.17,0.95*04
$GPRMC,213321.000,A,4735.5705,N,12222.9120,W,0.07,322.07,240716,,,A*70
$GPVTG,322.07,T,,M,0.07,N,0.13,K,A*3C
$GPGGA,213322.000,4735.5706,N,12222.9120,W,1,05,2.17,-9.8,M,-17.4,M,,*75
$GPGSA,A,3,12,19,25,02,06,,,,,,,,2.37,2.17,0.95*04
$GPRMC,213322.000,A,4735.5706,N,12222.9120,W,0.08,217.30,240716,,,A*7C
$GPVTG,217.30,T,,M,0.08,N,0.15,K,A*36
$GPGGA,213323.000,4735.5705,N,12222.9120,W,1,05,2.17,-9.8,M,-17.4,M,,*77
$GPGSA,A,3,12,19,25,02,06,,,,,,,,2.37,2.17,0.95*04
$GPRMC,213323.000,A,4735.5705,N,12222.9120,W,0.08,268.15,240716,,,A*71
$GPVTG,268.15,T,,M,0.08,N,0.15,K,A*39
$GPGGA,213324.000,4735.5705,N,12222.9121,W,1,05,2.17,-9.8,M,-17.4,M,,*71
$GPGSA,A,3,12,19,25,02,06,,,,,,,,2.37,2.17,0.95*04
$GPRMC,213324.000,A,4735.5705,N,12222.9121,W,0.14,254.01,240716,,,A*70
$GPVTG,254.01,T,,M,0.14,N,0.25,K,A*3D
$GPGGA,213325.000,4735.5705,N,12222.9121,W,1,05,2.17,-9.8,M,-17.4,M,,*70
$GPGSA,A,3,12,19,25,02,06,,,,,,,,2.36,2.17,0.95*05
$GPGSV,3,1,10,12,78,174,27,02,75,088,33,25,57,300,35,06,33,052,29*7B
$GPGSV,3,2,10,29,33,276,24,05,19,150,,19,14,082,14,31,12,327,*7B
$GPGSV,3,3,10,24,10,201,,38,,,*47
$GPRMC,213325.000,A,4735.5705,N,12222.9121,W,0.18,239.66,240716,,,A*77
$GPVTG,239.66,T,,M,0.18,N,0.33,K,A*3C
$GPGGA,213326.000,4735.5705,N,12222.9122,W,1,05,2.17,-9.8,M,-17.4,M,,*70
$GPGSA,A,3,12,19,25,02,06,,,,,,,,2.36,2.17,0.95*05
$GPRMC,213326.000,A,4735.5705,N,12222.9122,W,0.04,280.12,240716,,,A*7B
$GPVTG,280.12,T,,M,0.04,N,0.07,K,A*37
$GPGGA,213327.000,4735.5705,N,12222.9122,W,1,04,2.38,-9.8,M,-17.4,M,,*7D
$GPGSA,A,3,12,25,02,06,,,,,,,,,2.58,2.38,1.00*05
$GPRMC,213327.000,A,4735.5705,N,12222.9122,W,0.23,298.45,240716,,,A*74
$GPVTG,298.45,T,,M,0.23,N,0.43,K,A*39
$GPGGA,213328.000,4735.5705,N,12222.9123,W,1,04,2.38,-9.8,M,-17.4,M,,*73
$GPGSA,A,3,12,25,02,06,,,,,,,,,2.58,2.38,1.00*05
$GPRMC,213328.000,A,4735.5705,N,12222.9123,W,0.19,303.64,240716,,,A*73
$GPVTG,303.64,T,,M,0.19,N,0.34,K,A*30
$GPGGA,213329.000,4735.5706,N,12222.9123,W,1,04,2.38,-9.8,M,-17.4,M,,*71
$GPGSA,A,3,12,25,02,06,,,,,,,,,2.58,2.38,1.00*05
$GPRMC,213329.000,A,4735.5706,N,12222.9123,W,0.11,335.16,240716,,,A*79
$GPVTG,335.16,T,,M,0.11,N,0.20,K,A*3D
$GPGGA,213330.000,4735.5706,N,12222.9123,W,1,04,2.38,-9.8,M,-17.4,M,,*79
$GPGSA,A,3,12,25,02,06,,,,,,,,,2.58,2.38,1.00*05
$GPGSV,3,1,10,12,78,174,27,02,75,088,32,25,57,300,35,06,33,052,28*7B
$GPGSV,3,2,10,29,33,276,,05,19,150,,19,14,082,,31,12,327,*78
$GPGSV,3,3,10,24,10,201,,41,,,*49
$GPRMC,213330.000,A,4735.5706,N,12222.9123,W,0.08,218.41,240716,,,A*75
$GPVTG,218.41,T,,M,0.08,N,0.15,K,A*3F
$GPGGA,213331.000,4735.5706,N,12222.9124,W,1,05,2.17,-9.8,M,-17.4,M,,*73
$GPGSA,A,3,12,19,25,02,06,,,,,,,,2.36,2.17,0.95*05
$GPRMC,213331.000,A,4735.5706,N,12222.9124,W,0.11,225.86,240716,,,A*7E
$GPVTG,225.86,T,,M,0.11,N,0.20,K,A*34
$GPGGA,213332.000,4735.5705,N,12222.9124,W,1,05,2.16,-9.8,M,-17.4,M,,*72
$GPGSA,A,3,12,19,25,02,06,,,,,,,,2.36,2.16,0.95*04
$GPRMC,213332.000,A,4735.5705,N,12222.9124,W,0.18,245.41,240716,,,A*7A
$GPVTG,245.41,T,,M,0.18,N,0.34,K,A*35
$GPGGA,213333.000,4735.5705,N,12222.9125,W,1,06,1.68,-9.8,M,-17.4,M,,*7B
$GPGSA,A,3,12,19,25,31,02,06,,,,,,,1.91,1.68,0.91*06
$GPRMC,213333.000,A,4735.5705,N,12222.9125,W,0.30,233.56,240716,,,A*77
$GPVTG,233.56,T,,M,0.30,N,0.56,K,A*3C
$GPGGA,213334.000,4735.5711,N,12222.9122,W,1,05,2.16,-9.8,M,-17.4,M,,*77
$GPGSA,A,3,12,19,25,02,06,,,,,,,,2.36,2.16,0.95*04
$GPRMC,213334.000,A,4735.5711,N,12222.9122,W,0.17,301.39,240716,,,A*7E
$GPVTG,301.39,T,,M,0.17,N,0.32,K,A*32
$GPGGA,213335.000,4735.5711,N,12222.9122,W,1,05,2.17,-9.8,M,-17.4,M,,*77
$GPGSA,A,3,12,19,25,02,06,,,,,,,,2.36,2.17,0.95*05
$GPGSV,3,1,10,12,78,174,27,02,74,087,33,25,57,300,33,06,33,052,28*72
$GPGSV,3,2,10,29,33,276,,05,20,150,,19,14,082,14,31,12,327,*77
$GPGSV,3,3,10,24,10,201,,43,,,*4B
$GPRMC,213335.000,A,4735.5711,N,12222.9122,W,0.22,351.85,240716,,,A*7B
$GPVTG,351.85,T,,M,0.22,N,0.41,K,A*32
$GPGGA,213336.000,4735.5712,N,12222.9123,W,1,05,2.69,-9.8,M,-17.4,M,,*7F
$GPGSA,A,3,12,19,25,02,06,,,,,,,,4.04,2.69,3.01*05
$GPRMC,213336.000,A,4735.5712,N,12222.9123,W,0.17,358.07,240716,,,A*7F
$GPVTG,358.07,T,,M,0.17,N,0.32,K,A*33
$GPGGA,213337.000,4735.5712,N,12222.9123,W,1,06,2.41,-9.8,M,-17.4,M,,*77
$GPGSA,A,3,12,19,25,31,02,06,,,,,,,3.30,2.41,2.25*0A
$GPRMC,213337.000,A,4735.5712,N,12222.9123,W,0.14,346.25,240716,,,A*72
$GPVTG,346.25,T,,M,0.14,N,0.26,K,A*3A
$GPGGA,213338.000,4735.5713,N,12222.9123,W,1,05,2.69,-9.8,M,-17.4,M,,*70
$GPGSA,A,3,12,19,25,02,06,,,,,,,,4.03,2.69,3.00*03
$GPRMC,213338.000,A,4735.5713,N,12222.9123,W,0.09,322.93,240716,,,A*7F
$GPVTG,322.93,T,,M,0.09,N,0.16,K,A*3A
$GPGGA,213339.000,4735.5713,N,12222.9123,W,1,05,2.16,-9.8,M,-17.4,M,,*79
$GPGSA,A,3,12,19,25,02,06,,,,,,,,2.36,2.16,0.95*04
$GPRMC,213339.000,A,4735.5713,N,12222.9123,W,0.17,269.26,240716,,,A*71
$GPVTG,269.26,T,,M,0.17,N,0.32,K,A*33
$GPGGA,213340.000,4735.5713,N,12222.9124,W,1,05,2.16,-9.8,M,-17.4,M,,*70
$GPGSA,A,3,12,19,25,02,06,,,,,,,,2.36,2.16,0.95*04
$GPGSV,3,1,10,12,78,174,28,02,74,087,34,25,57,300,34,06,33,052,29*7C
$GPGSV,3,2,10,29,33,276,,05,20,150,,19,14,082,13,31,12,327,*70
$GPGSV,3,3,10,24,10,201,,45,,,*4D
$GPRMC,213340.000,A,4735.5713,N,12222.9124,W,0.11,190.16,240716,,,A*78
$GPVTG,190.16,T,,M,0.11,N,0.20,K,A*30
$GPGGA,213341.000,4735.5713,N,12222.9124,W,1,04,2.38,-9.8,M,-17.4,M,,*7C
$GPGSA,A,3,12,25,02,06,,,,,,,,,2.58,2.38,0.99*04
$GPRMC,213341.000,A,4735.5713,N,12222.9124,W,0.13,13.12,240716,,,A*45
$GPVTG,13.12,T,,M,0.13,N,0.24,K,A*08
$GPGGA,213342.000,4735.5713,N,12222.9123,W,1,04,5.85,-9.8,M,-17.4,M,,*79
$GPGSA,A,3,12,25,02,06,,,,,,,,,11.47,5.85,9.87*3F
$GPRMC,213342.000,A,4735.5713,N,12222.9123,W,0.19,334.49,240716,,,A*73
$GPVTG,334.49,T,,M,0.19,N,0.35,K,A*3A
$GPGGA,213343.000,4735.5713,N,12222.9124,W,1,04,2.38,-9.8,M,-17.4,M,,*7E
$GPGSA,A,3,12,25,02,06,,,,,,,,,2.58,2.38,0.99*04
$GPRMC,213343.000,A,4735.5713,N,12222.9124,W,0.38,353.84,240716,,,A*76
$GPVTG,353.84,T,,M,0.38,N,0.70,K,A*38
$GPGGA,213344.000,4735.5714,N,12222.9124,W,1,04,5.84,-9.8,M,-17.4,M,,*7E
$GPGSA,A,3,12,25,02,06,,,,,,,,,11.45,5.84,9.85*3E
$GPRMC,213344.000,A,4735.5714,N,12222.9124,W,0.27,355.32,240716,,,A*73
$GPVTG,355.32,T,,M,0.27,N,0.49,K,A*37
$GPGGA,213345.000,4735.5715,N,12222.9124,W,1,04,5.83,-9.8,M,-17.4,M,,*79
$GPGSA,A,3,12,25,02,06,,,,,,,,,11.44,5.83,9.84*39
$GPGSV,3,1,10,12,78,173,28,02,74,087,34,25,57,300,34,06,33,052,28*7A
$GPGSV,3,2,10,29,33,276,,05,20,150,,19,14,082,,31,12,327,*72
$GPGSV,3,3,10,24,10,201,,45,,,*4D
$GPRMC,213345.000,A,4735.5715,N,12222.9124,W,0.20,45.51,240716,,,A*43
$GPVTG,45.51,T,,M,0.20,N,0.38,K,A*01
$GPGGA,213346.000,4735.5716,N,12222.9123,W,1,04,2.38,-9.8,M,-17.4,M,,*79
$GPGSA,A,3,12,25,02,06,,,,,,,,,2.58,2.38,0.99*04
$GPRMC,213346.000,A,4735.5716,N,12222.9123,W,0.24,39.65,240716,,,A*4C
$GPVTG,39.65,T,,M,0.24,N,0.44,K,A*02
$GPGGA,213347.000,4735.5716,N,12222.9123,W,1,04,2.38,-9.8,M,-17.4,M,,*78
$GPGSA,A,3,12,25,02,06,,,,,,,,,2.58,2.38,0.99*04
$GPRMC,213347.000,A,4735.5716,N,12222.9123,W,0.24,28.42,240716,,,A*48
$GPVTG,28.42,T,,M,0.24,N,0.44,K,A*07
$GPGGA,213348.000,4735.5716,N,12222.9122,W,1,04,2.38,-9.8,M,-17.4,M,,*76
$GPGSA,A,3,12,25,02,06,,,,,,,,,2.58,2.38,0.99*04
$GPRMC,213348.000,A,4735.5716,N,12222.9122,W,0.13,227.60,240716,,,A*7F
$GPVTG,227.60,T,,M,0.13,N,0.25,K,A*39
$GPGGA,213349.000,4735.5716,N,12222.9123,W,1,04,2.38,-9.8,M,-17.4,M,,*76
$GPGSA,A,3,12,25,02,06,,,,,,,,,2.58,2.38,0.99*04
$GPRMC,213349.000,A,4735.5716,N,12222.9123,W,0.10,230.87,240716,,,A*73
$GPVTG,230.87,T,,M,0.10,N,0.18,K,A*3B
$GPGGA,213350.000,4735.5716,N,12222.9123,W,1,04,2.38,-9.8,M,-17.4,M,,*7E
$GPGSA,A,3,12,25,02,06,,,,,,,,,2.58,2.38,0.99*04
$GPGSV,3,1,09,12,78,173,27,02,74,087,34,25,57,300,33,06,33,052,28*7A
$GPGSV,3,2,09,29,33,276,,05,20,150,,19,14,082,,31,12,327,*7A
$GPGSV,3,3,09,24,10,201,*44
$GPRMC,213350.000,A,4735.5716,N,12222.9123,W,0.04,227.93,240716,,,A*7D
$GPVTG,227.93,T,,M,0.04,N,0.08,K,A*3C
$GPGGA,213351.000,4735.5716,N,12222.9123,W,1,04,2.38,-9.8,M,-17.4,M,,*7F
$GPGSA,A,3,12,25,02,06,,,,,,,,,2.58,2.38,0.99*04
$GPRMC,213351.000,A,4735.5716,N,12222.9123,W,0.11,215.71,240716,,,A*75
$GPVTG,215.71,T,,M,0.11,N,0.20,K,A*3F
$GPGGA,213352.000,4735.5716,N,12222.9123,W,1,04,2.38,-9.8,M,-17.4,M,,*7C
$GPGSA,A,3,12,25,02,06,,,,,,,,,2.58,2.38,0.99*04
$GPRMC,213352.000,A,4735.5716,N,12222.9123,W,0.09,286.07,240716,,,A*74
$GPVTG,286.07,T,,M,0.09,N,0.18,K,A*36
$GPGGA,213353.000,4735.5716,N,12222.9124,W,1,05,1.80,-9.8,M,-17.4,M,,*7B
$GPGSA,A,3,12,25,02,06,31,,,,,,,,2.05,1.80,0.98*0F
$GPRMC,213353.000,A,4735.5716,N,12222.9124,W,0.07,279.33,240716,,,A*7B
$GPVTG,279.33,T,,M,0.07,N,0.12,K,A*35
$GPGGA,213354.000,4735.5716,N,12222.9124,W,1,04,2.38,-9.8,M,-17.4,M,,*7D
$GPGSA,A,3,12,25,02,06,,,,,,,,,2.58,2.38,0.99*04
$GPRMC,213354.000,A,4735.5716,N,12222.9124,W,0.01,305.45,240716,,,A*71
$GPVTG,305.45,T,,M,0.01,N,0.02,K,A*39
$GPGGA,213355.000,4735.5716,N,12222.9124,W,1,04,2.38,-9.8,M,-17.4,M,,*7C
$GPGSA,A,3,12,25,02,06,,,,,,,,,2.58,2.38,0.99*04
$GPGSV,3,1,10,12,78,173,28,02,74,087,34,25,57,300,33,06,33,052,28*7D
$GPGSV,3,2,10,29,33,276,,05,20,150,,19,14,082,,31,12,327,*72
$GPGSV,3,3,10,24,10,201,,46,,,*4E
$GPRMC,213355.000,A,4735.5716,N,12222.9124,W,0.14,157.88,240716,,,A*70
$GPVTG,157.88,T,,M,0.14,N,0.25,K,A*3C
$GPGGA,213356.000,4735.5715,N,12222.9124,W,1,04,2.38,-9.8,M,-17.4,M,,*7C
$GPGSA,A,3,12,25,02,06,,,,,,,,,2.58,2.38,0.99*04
$GPRMC,213356.000,A,4735.5715,N,12222.9124,W,0.06,62.17,240716,,,A*42
$GPVTG,62.17,T,,M,0.06,N,0.12,K,A*0A
$GPGGA,213357.000,4735.5715,N,12222.9123,W,1,04,2.38,-9.8,M,-17.4,M,,*7A
$GPGSA,A,3,12,25,02,06,,,,,,,,,2.58,2.38,0.99*04
$GPRMC,213357.000,A,4735.5715,N,12222.9123,W,0.13,62.07,240716,,,A*41
$GPVTG,62.07,T,,M,0.13,N,0.25,K,A*0B
$GPGGA,213358.000,4735.5715,N,12222.9123,W,1,05,2.16,-9.8,M,-17.4,M,,*78
$GPGSA,A,3,12,19,25,02,06,,,,,,,,2.36,2.16,0.95*04
$GPRMC,213358.000,A,4735.5715,N,12222.9123,W,0.17,115.92,240716,,,A*77
$GPVTG,115.92,T,,M,0.17,N,0.31,K,A*37
$GPGGA,213359.000,4735.5715,N,12222.9122,W,1,05,2.16,-9.8,M,-17.4,M,,*78
$GPGSA,A,3,12,19,25,02,06,,,,,,,,2.36,2.16,0.95*04
$GPRMC,213359.000,A,4735.5715,N,12222.9122,W,0.18,112.34,240716,,,A*73
$GPVTG,112.34,T,,M,0.18,N,0.33,K,A*31
$GPGGA,213400.000,4735.5715,N,12222.9122,W,1,05,2.16,-9.8,M,-17.4,M,,*73
$GPGSA,A,3,12,19,25,02,06,,,,,,,,2.36,2.16,0.95*04
$GPGSV,3,1,10,12,78,173,29,02,74,087,34,25,57,300,33,29,34,276,*78
$GPGSV,3,2,10,06,33,052,29,05,20,150,,19,14,082,15,31,12,327,*74
$GPGSV,3,3,10,24,10,201,,47,,,*4F
$GPRMC,213400.000,A,4735.5715,N,12222.9122,W,0.08,167.75,240716,,,A*7E
$GPVTG,167.75,T,,M,0.08,N,0.14,K,A*32
$GPGGA,213401.000,4735.5715,N,12222.9121,W,1,04,2.38,-9.8,M,-17.4,M,,*7C
$GPGSA,A,3,12,25,02,06,,,,,,,,,2.58,2.38,0.99*04
$GPRMC,213401.000,A,4735.5715,N,12222.9121,W,0.14,105.12,240716,,,A*74
$GPVTG,105.12,T,,M,0.14,N,0.25,K,A*38
$GPGGA,213402.000,4735.5715,N,12222.9121,W,1,03,3.36,-9.8,M,-17.4,M,,*77
$GPGSA,A,2,25,02,06,,,,,,,,,,3.51,3.36,1.00*00
$GPRMC,213402.000,A,4735.5715,N,12222.9121,W,0.26,96.71,240716,,,A*48
$GPVTG,96.71,T,,M,0.26,N,0.48,K,A*0C
$GPGGA,213403.000,4735.5715,N,12222.9120,W,1,04,2.38,-9.8,M,-17.4,M,,*7F
$GPGSA,A,3,12,25,02,06,,,,,,,,,2.58,2.38,0.99*04
$GPRMC,213403.000,A,4735.5715,N,12222.9120,W,0.27,83.84,240716,,,A*47
$GPVTG,83.84,T,,M,0.27,N,0.51,K,A*0B
$GPGGA,213404.000,4735.5715,N,12222.9119,W,1,04,2.38,-9.8,M,-17.4,M,,*72
$GPGSA,A,3,12,25,02,06,,,,,,,,,2.58,2.38,0.99*04
$GPRMC,213404.000,A,4735.5715,N,12222.9119,W,0.30,81.87,240716,,,A*4D
$GPVTG,81.87,T,,M,0.30,N,0.56,K,A*0B
$GPGGA,213405.000,4735.5715,N,12222.9117,W,1,04,2.38,-9.8,M,-17.4,M,,*7D
$GPGSA,A,3,12,25,02,06,,,,,,,,,2.58,2.38,0.99*04
$GPGSV,3,1,10,12,78,173,30,02,74,087,33,25,57,300,33,29,34,276,20*75
$GPGSV,3,2,10,06,33,052,29,05,20,150,,19,14,082,,31,12,327,*70
$GPGSV,3,3,10,24,10,201,,47,,,*4F
$GPRMC,213405.000,A,4735.5715,N,12222.9117,W,0.31,97.36,240716,,,A*4E
$GPVTG,97.36,T,,M,0.31,N,0.58,K,A*09
$GPGGA,213406.000,4735.5714,N,12222.9116,W,1,03,3.37,-9.8,M,-17.4,M,,*77
$GPGSA,A,2,25,02,06,,,,,,,,,,3.51,3.37,1.00*01
$GPRMC,213406.000,A,4735.5714,N,12222.9116,W,0.28,110.13,240716,,,A*7C
$GPVTG,110.13,T,,M,0.28,N,0.52,K,A*32
$GPGGA,213407.000,4735.5714,N,12222.9115,W,1,03,3.37,-9.8,M,-17.4,M,,*75
$GPGSA,A,2,25,02,06,,,,,,,,,,3.51,3.37,1.00*01
$GPRMC,213407.000,A,4735.5714,N,12222.9115,W,0.30,111.22,240716,,,A*74
$GPVTG,111.22,T,,M,0.30,N,0.55,K,A*3F
$GPGGA,213408.000,4735.5714,N,12222.9114,W,1,03,3.37,-9.8,M,-17.4,M,,*7B
$GPGSA,A,2,25,02,06,,,,,,,,,,3.52,3.37,1.00*02
$GPRMC,213408.000,A,4735.5714,N,12222.9114,W,0.26,103.83,240716,,,A*75
$GPVTG,103.83,T,,M,0.26,N,0.48,K,A*3C
$GPGGA,213409.000,4735.5713,N,12222.9113,W,1,03,3.37,-9.8,M,-17.4,M,,*7A
$GPGSA,A,2,25,02,06,,,,,,,,,,3.51,3.37,1.00*01
$GPRMC,213409.000,A,4735.5713,N,12222.9113,W,0.31,127.82,240716,,,A*75
$GPVTG,127.82,T,,M,0.31,N,0.57,K,A*33
$GPGGA,213410.000,4735.5713,N,12222.9112,W,1,03,3.37,-9.8,M,-17.4,M,,*73
$GPGSA,A,2,25,02,06,,,,,,,,,,3.52,3.37,1.00*02
$GPGSV,3,1,10,12,78,173,,02,74,087,34,25,57,300,34,29,34,276,24*72
$GPGSV,3,2,10,06,33,052,29,05,20,150,18,19,14,082,,31,12,327,*79
$GPGSV,3,3,10,24,10,201,,49,,,*41
$GPRMC,213410.000,A,4735.5713,N,12222.9112,W,0.30,125.81,240716,,,A*7C
$GPVTG,125.81,T,,M,0.30,N,0.55,K,A*31
$GPGGA,213411.000,4735.5712,N,12222.9111,W,1,04,2.29,-9.8,M,-17.4,M,,*79
$GPGSA,A,3,25,02,06,31,,,,,,,,,2.49,2.29,1.00*04
$GPRMC,213411.000,A,4735.5712,N,12222.9111,W,0.39,161.92,240716,,,A*74
$GPVTG,161.92,T,,M,0.39,N,0.72,K,A*3F
$GPGGA,213412.000,4735.5711,N,12222.9110,W,1,04,2.38,-9.8,M,-17.4,M,,*78
$GPGSA,A,3,12,25,02,06,,,,,,,,,2.58,2.38,0.99*04
$GPRMC,213412.000,A,4735.5711,N,12222.9110,W,0.27,142.93,240716,,,A*7A
$GPVTG,142.93,T,,M,0.27,N,0.50,K,A*30
$GPGGA,213413.000,4735.5711,N,12222.9109,W,1,04,2.38,-9.8,M,-17.4,M,,*71
$GPGSA,A,3,12,25,02,06,,,,,,,,,2.58,2.38,0.99*04
$GPRMC,213413.000,A,4735.5711,N,12222.9109,W,0.48,126.50,240716,,,A*77
$GPVTG,126.50,T,,M,0.48,N,0.89,K,A*30
$GPGGA,213414.000,4735.5710,N,12222.9108,W,1,05,1.80,-9.8,M,-17.4,M,,*77
$GPGSA,A,3,12,25,31,02,06,,,,,,,,2.05,1.80,0.98*0F
$GPRMC,213414.000,A,4735.5710,N,12222.9108,W,0.27,104.87,240716,,,A*73
$GPVTG,104.87,T,,M,0.27,N,0.49,K,A*3F
$GPGGA,213415.000,4735.5710,N,12222.9107,W,1,04,2.38,-9.8,M,-17.4,M,,*78
$GPGSA,A,3,12,25,02,06,,,,,,,,,2.58,2.38,0.99*04
$GPGSV,3,1,10,12,78,173,27,02,74,087,33,25,57,300,33,29,34,276,*71
$GPGSV,3,2,10,48,34,194,,06,33,052,29,05,20,150,18,19,14,082,*79
$GPGSV,3,3,10,31,12,327,,24,10,201,*7B
$GPRMC,213415.000,A,4735.5710,N,12222.9107,W,0.28,105.85,240716,,,A*71
$GPVTG,105.85,T,,M,0.28,N,0.51,K,A*3A
$GPGGA,213416.000,4735.5709,N,12222.9106,W,1,05,1.80,-9.8,M,-17.4,M,,*73
$GPGSA,A,3,12,25,31,02,06,,,,,,,,2.05,1.80,0.98*0F
$GPRMC,213416.000,A,4735.5709,N,12222.9106,W,0.19,147.61,240716,,,A*75
$GPVTG,147.61,T,,M,0.19,N,0.35,K,A*36
$GPGGA,213417.000,4735.5709,N,12222.9105,W,1,05,1.80,-9.8,M,-17.4,M,,*71
$GPGSA,A,3,12,25,31,02,06,,,,,,,,2.05,1.80,0.98*0F
$GPRMC,213417.000,A,4735.5709,N,12222.9105,W,0.15,208.01,240716,,,A*75
$GPVTG,208.01,T,,M,0.15,N,0.28,K,A*38
$GPGGA,213418.000,4735.5708,N,12222.9106,W,1,05,1.80,-9.8,M,-17.4,M,,*7C
$GPGSA,A,3,12,25,31,02,06,,,,,,,,2.05,1.80,0.98*0F
$GPRMC,213418.000,A,4735.5708,N,12222.9106,W,0.35,192.08,240716,,,A*73
$GPVTG,192.08,T,,M,0.35,N,0.64,K,A*3B
$GPGGA,213419.000,4735.5707,N,12222.9106,W,1,04,2.38,-9.8,M,-17.4,M,,*73
$GPGSA,A,3,12,25,02,06,,,,,,,,,2.58,2.38,0.99*04
$GPRMC,213419.000,A,4735.5707,N,12222.9106,W,0.07,308.20,240716,,,A*77
$GPVTG,308.20,T,,M,0.07,N,0.14,K,A*36
$GPGGA,213420.000,4735.5708,N,12222.9106,W,1,04,2.38,-9.8,M,-17.4,M,,*76
$GPGSA,A,3,12,25,02,06,,,,,,,,,2.58,2.38,0.99*04
$GPGSV,3,1,10,12,77,173,28,02,74,087,33,25,57,300,33,29,34,276,20*73
$GPGSV,3,2,10,48,34,194,,06,33,052,28,05,20,150,16,19,14,082,*76
$GPGSV,3,3,10,31,12,327,,24,10,201,*7B
$GPRMC,213420.000,A,4735.5708,N,12222.9106,W,0.07,68.48,240716,,,A*49
$GPVTG,68.48,T,,M,0.07,N,0.13,K,A*0A
$GPGGA,213421.000,4735.5708,N,12222.9106,W,1,04,2.38,-9.8,M,-17.4,M,,*77
$GPGSA,A,3,12,25,02,06,,,,,,,,,2.58,2.38,0.99*04
$GPRMC,213421.000,A,4735.5708,N,12222.9106,W,0.24,180.59,240716,,,A*7E
$GPVTG,180.59,T,,M,0.24,N,0.45,K,A*3F
$GPGGA,213422.000,4735.5707,N,12222.9106,W,1,05,1.80,-9.8,M,-17.4,M,,*7A
$GPGSA,A,3,12,25,31,02,06,,,,,,,,2.05,1.80,0.98*0F
$GPRMC,213422.000,A,4735.5707,N,12222.9106,W,0.33,181.87,240716,,,A*76
$GPVTG,181.87,T,,M,0.33,N,0.62,K,A*3E
$GPGGA,213423.000,4735.5706,N,12222.9106,W,1,03,3.38,-9.8,M,-17.4,M,,*7D
$GPGSA,A,2,25,02,06,,,,,,,,,,3.53,3.38,1.00*0C
$GPRMC,213423.000,A,4735.5706,N,12222.9106,W,0.41,153.01,240716,,,A*72
$GPVTG,153.01,T,,M,0.41,N,0.77,K,A*3E
$GPGGA,213424.000,4735.5705,N,12222.9105,W,1,04,2.29,-9.8,M,-17.4,M,,*7C
$GPGSA,A,3,25,31,02,06,,,,,,,,,2.49,2.29,1.00*04
$GPRMC,213424.000,A,4735.5705,N,12222.9105,W,0.16,162.56,240716,,,A*77
$GPVTG,162.56,T,,M,0.16,N,0.30,K,A*3F
$GPGGA,213425.000,4735.5705,N,12222.9105,W,1,03,3.38,-9.8,M,-17.4,M,,*7B
$GPGSA,A,2,25,02,06,,,,,,,,,,3.53,3.38,1.00*0C
$GPGSV,3,1,09,12,77,173,,02,74,087,33,25,57,300,34,29,34,276,*74
$GPGSV,3,2,09,06,33,052,28,05,20,150,17,19,14,082,,31,12,327,*7F
$GPGSV,3,3,09,24,10,201,*44
$GPRMC,213425.000,A,4735.5705,N,12222.9105,W,0.19,153.78,240716,,,A*77
$GPVTG,153.78,T,,M,0.19,N,0.35,K,A*3B
$GPGGA,213426.000,4735.5704,N,12222.9104,W,1,04,2.38,-9.8,M,-17.4,M,,*7E
$GPGSA,A,3,12,25,02,06,,,,,,,,,2.58,2.38,0.99*04
$GPRMC,213426.000,A,4735.5704,N,12222.9104,W,0.24,165.84,240716,,,A*7C
$GPVTG,165.84,T,,M,0.24,N,0.45,K,A*34
$GPGGA,213427.000,4735.5703,N,12222.9104,W,1,05,1.80,-9.8,M,-17.4,M,,*79
$GPGSA,A,3,12,25,31,02,06,,,,,,,,2.05,1.80,0.98*0F
$GPRMC,213427.000,A,4735.5703,N,12222.9104,W,0.14,177.90,240716,,,A*7F
$GPVTG,177.90,T,,M,0.14,N,0.26,K,A*34
$GPGGA,213428.000,4735.5703,N,12222.9104,W,1,04,2.38,-9.8,M,-17.4,M,,*77
$GPGSA,A,3,12,25,02,06,,,,,,,,,2.57,2.38,0.99*0B
$GPRMC,213428.000,A,4735.5703,N,12222.9104,W,0.28,219.62,240716,,,A*79
$GPVTG,219.62,T,,M,0.28,N,0.52,K,A*3E
$GPGGA,213429.000,4735.5702,N,12222.9105,W,1,04,2.38,-9.8,M,-17.4,M,,*76
$GPGSA,A,3,12,25,02,06,,,,,,,,,2.58,2.38,0.99*04
$GPRMC,213429.000,A,4735.5702,N,12222.9105,W,0.41,199.86,240716,,,A*76
$GPVTG,199.86,T,,M,0.41,N,0.75,K,A*35
$GPGGA,213430.000,4735.5701,N,12222.9105,W,1,04,2.38,-9.8,M,-17.4,M,,*7D
$GPGSA,A,3,12,25,02,06,,,,,,,,,2.58,2.38,0.99*04
$GPGSV,3,1,10,12,77,173,28,02,74,087,33,25,57,300,34,29,34,276,25*71
$GPGSV,3,2,10,06,33,052,30,51,33,159,,05,20,150,18,19,14,082,*7F
$GPGSV,3,3,10,31,12,327,,24,10,200,*7A
$GPRMC,213430.000,A,4735.5701,N,12222.9105,W,0.33,195.68,240716,,,A*74
$GPVTG,195.68,T,,M,0.33,N,0.60,K,A*38
$GPGGA,213431.000,4735.5700,N,12222.9106,W,1,04,2.38,-9.8,M,-17.4,M,,*7E
$GPGSA,A,3,12,25,02,06,,,,,,,,,2.58,2.38,0.99*04
$GPRMC,213431.000,A,4735.5700,N,12222.9106,W,0.41,200.06,240716,,,A*75
$GPVTG,200.06,T,,M,0.41,N,0.77,K,A*3C
$GPGGA,213432.000,4735.5699,N,12222.9106,W,1,04,2.38,-9.8,M,-17.4,M,,*7C
$GPGSA,A,3,12,25,02,06,,,,,,,,,2.58,2.38,0.99*04
$GPRMC,213432.000,A,4735.5699,N,12222.9106,W,0.36,198.79,240716,,,A*7D
$GPVTG,198.79,T,,M,0.36,N,0.67,K,A*37
$GPGGA,213433.000,4735.5698,N,12222.9107,W,1,05,1.80,-9.8,M,-17.4,M,,*7C
$GPGSA,A,3,12,25,31,02,06,,,,,,,,2.05,1.80,0.98*0F
$GPRMC,213433.000,A,4735.5698,N,12222.9107,W,0.16,169.80,240716,,,A*76
$GPVTG,169.80,T,,M,0.16,N,0.29,K,A*37
$GPGGA,213434.000,4735.5698,N,12222.9107,W,1,05,1.80,-9.8,M,-17.4,M,,*7B
$GPGSA,A,3,12,25,31,02,06,,,,,,,,2.05,1.80,0.98*0F
$GPRMC,213434.000,A,4735.5698,N,12222.9107,W,0.05,306.10,240716,,,A*71
$GPVTG,306.10,T,,M,0.05,N,0.09,K,A*35
$GPGGA,213435.000,4735.5698,N,12222.9107,W,1,05,1.80,-9.8,M,-17.4,M,,*7A
$GPGSA,A,3,12,25,31,02,06,,,,,,,,2.05,1.80,0.98*0F
$GPGSV,3,1,10,12,77,173,28,02,74,087,34,25,57,300,33,29,34,277,20*75
$GPGSV,3,2,10,06,33,052,30,05,20,150,16,19,14,082,,31,12,327,22*7F
$GPGSV,3,3,10,24,10,200,,34,,,*4A
$GPRMC,213435.000,A,4735.5698,N,12222.9107,W,0.55,0.38,240716,,,A*7A
$GPVTG,0.38,T,,M,0.55,N,1.02,K,A*35
$GPGGA,213436.000,4735.5700,N,12222.9107,W,1,05,4.18,-9.8,M,-17.4,M,,*7D
$GPGSA,A,3,12,25,31,02,06,,,,,,,,6.53,4.18,5.01*09
$GPRMC,213436.000,A,4735.5700,N,12222.9107,W,0.12,5.39,240716,,,A*7E
$GPVTG,5.39,T,,M,0.12,N,0.22,K,A*31
$GPGGA,213437.000,4735.5700,N,12222.9107,W,1,05,2.67,-9.8,M,-17.4,M,,*72
$GPGSA,A,3,12,19,25,02,06,,,,,,,,4.00,2.67,2.98*0E
$GPRMC,213437.000,A,4735.5700,N,12222.9107,W,0.31,224.38,240716,,,A*7E
$GPVTG,224.38,T,,M,0.31,N,0.58,K,A*3D
$GPGGA,213438.000,4735.5698,N,12222.9108,W,1,05,1.80,-9.8,M,-17.4,M,,*78
$GPGSA,A,3,12,25,31,02,06,,,,,,,,2.05,1.80,0.98*0F
$GPRMC,213438.000,A,4735.5698,N,12222.9108,W,0.35,214.08,240716,,,A*7A
$GPVTG,214.08,T,,M,0.35,N,0.65,K,A*37
$GPGGA,213439.000,4735.5697,N,12222.9108,W,1,05,1.80,-9.8,M,-17.4,M,,*76
$GPGSA,A,3,12,25,31,02,06,,,,,,,,2.05,1.80,0.98*0F
$GPRMC,213439.000,A,4735.5697,N,12222.9108,W,0.23,201.74,240716,,,A*7C
$GPVTG,201.74,T,,M,0.23,N,0.43,K,A*3B
$GPGGA,213440.000,4735.5696,N,12222.9109,W,1,05,1.80,-9.8,M,-17.4,M,,*78
$GPGSA,A,3,12,25,31,02,06,,,,,,,,2.05,1.80,0.98*0F
$GPGSV,3,1,10,12,77,173,27,02,74,087,33,25,57,300,33,29,34,277,21*7C
$GPGSV,3,2,10,06,33,052,29,05,20,150,16,19,14,082,,31,12,326,25*71
$GPGSV,3,3,10,24,10,200,,34,,,*4A
$GPRMC,213440.000,A,4735.5696,N,12222.9109,W,0.21,179.84,240716,,,A*73
$GPVTG,179.84,T,,M,0.21,N,0.39,K,A*37
$GPGGA,213441.000,4735.5696,N,12222.9109,W,1,05,1.80,-9.8,M,-17.4,M,,*79
$GPGSA,A,3,12,25,31,02,06,,,,,,,,2.05,1.80,0.98*0F
$GPRMC,213441.000,A,4735.5696,N,12222.9109,W,0.08,186.72,240716,,,A*70
$GPVTG,186.72,T,,M,0.08,N,0.15,K,A*3B
$GPGGA,213442.000,4735.5695,N,12222.9109,W,1,05,1.80,-9.8,M,-17.4,M,,*79
$GPGSA,A,3,12,25,31,02,06,,,,,,,,2.05,1.80,0.98*0F
$GPRMC,213442.000,A,4735.5695,N,12222.9109,W,0.05,123.43,240716,,,A*70
$GPVTG,123.43,T,,M,0.05,N,0.09,K,A*36
$GPGGA,213443.000,4735.5695,N,12222.9109,W,1,05,1.80,-9.8,M,-17.4,M,,*78
$GPGSA,A,3,12,25,31,02,06,,,,,,,,2.05,1.80,0.98*0F
$GPRMC,213443.000,A,4735.5695,N,12222.9109,W,0.54,125.03,240716,,,A*77
$GPVTG,125.03,T,,M,0.54,N,0.99,K,A*39
$GPGGA,213444.000,4735.5695,N,12222.9107,W,1,05,1.80,-9.8,M,-17.4,M,,*71
$GPGSA,A,3,12,25,31,02,06,,,,,,,,2.05,1.80,0.98*0F
$GPRMC,213444.000,A,4735.5695,N,12222.9107,W,0.33,149.00,240716,,,A*76
$GPVTG,149.00,T,,M,0.33,N,0.60,K,A*37
$GPGGA,213445.000,4735.5694,N,12222.9106,W,1,05,1.80,-9.8,M,-17.4,M,,*70
$GPGSA,A,3,12,25,31,02,06,,,,,,,,2.05,1.80,0.98*0F
$GPGSV,3,1,10,12,77,173,27,02,74,086,34,25,57,300,34,29,34,277,18*77
$GPGSV,3,2,10,06,33,052,30,05,20,150,16,19,14,082,,31,12,326,23*7F
$GPGSV,3,3,10,24,10,200,,35,,,*4B
$GPRMC,213445.000,A,4735.5694,N,12222.9106,W,0.07,248.03,240716,,,A*71
$GPVTG,248.03,T,,M,0.07,N,0.13,K,A*35
$GPGGA,213446.000,4735.5694,N,12222.9106,W,1,05,1.80,-9.8,M,-17.4,M,,*73
$GPGSA,A,3,12,25,31,02,06,,,,,,,,2.05,1.80,0.98*0F
$GPRMC,213446.000,A,4735.5694,N,12222.9106,W,0.22,187.44,240716,,,A*76
$GPVTG,187.44,T,,M,0.22,N,0.41,K,A*36
$GPGGA,213447.000,4735.5693,N,12222.9106,W,1,06,1.67,-9.8,M,-17.4,M,,*7F
$GPGSA,A,3,12,19,25,31,02,06,,,,,,,1.90,1.67,0.91*08
$GPRMC,213447.000,A,4735.5693,N,12222.9106,W,0.18,219.78,240716,,,A*72
$GPVTG,219.78,T,,M,0.18,N,0.34,K,A*36
$GPGGA,213448.000,4735.5693,N,12222.9107,W,1,06,1.67,-9.8,M,-17.4,M,,*71
$GPGSA,A,3,12,19,25,31,02,06,,,,,,,1.90,1.67,0.91*08
$GPRMC,213448.000,A,4735.5693,N,12222.9107,W,0.27,310.66,240716,,,A*77
$GPVTG,310.66,T,,M,0.27,N,0.50,K,A*3F
$GPGGA,213449.000,4735.5694,N,12222.9108,W,1,06,1.67,-9.9,M,-17.4,M,,*79
$GPGSA,A,3,12,19,25,31,02,06,,,,,,,1.90,1.67,0.91*08
$GPRMC,213449.000,A,4735.5694,N,12222.9108,W,0.11,10.02,240716,,,A*4A
$GPVTG,10.02,T,,M,0.11,N,0.21,K,A*0D
$GPGGA,213450.000,4735.5694,N,12222.9108,W,1,06,2.37,-9.9,M,-17.4,M,,*77
$GPGSA,A,3,12,19,25,31,02,06,,,,,,,3.24,2.37,2.21*0A
$GPGSV,3,1,10,12,77,173,27,02,74,086,33,25,57,300,34,29,34,277,21*7A
$GPGSV,3,2,10,06,33,052,29,05,20,150,14,19,14,082,20,31,12,326,23*77
$GPGSV,3,3,10,24,10,200,,36,,,*48
$GPRMC,213450.000,A,4735.5694,N,12222.9108,W,0.17,288.84,240716,,,A*79
$GPVTG,288.84,T,,M,0.17,N,0.31,K,A*37
$GPGGA,213451.000,4735.5694,N,12222.9108,W,1,05,1.79,-9.9,M,-17.4,M,,*7C
$GPGSA,A,3,12,25,31,02,06,,,,,,,,2.04,1.79,0.98*08
$GPRMC,213451.000,A,4735.5694,N,12222.9108,W,0.43,278.50,240716,,,A*7F
$GPVTG,278.50,T,,M,0.43,N,0.79,K,A*3C
$GPGGA,213452.000,4735.5694,N,12222.9110,W,1,05,1.79,-9.9,M,-17.4,M,,*76
$GPGSA,A,3,12,25,31,02,06,,,,,,,,2.05,1.79,0.98*09
$GPRMC,213452.000,A,4735.5694,N,12222.9110,W,0.23,295.05,240716,,,A*70
$GPVTG,295.05,T,,M,0.23,N,0.43,K,A*30
$GPGGA,213453.000,4735.5694,N,12222.9111,W,1,05,1.79,-9.9,M,-17.4,M,,*76
$GPGSA,A,3,12,25,31,02,06,,,,,,,,2.04,1.79,0.98*08
$GPRMC,213453.000,A,4735.5694,N,12222.9111,W,0.19,277.22,240716,,,A*70
$GPVTG,277.22,T,,M,0.19,N,0.35,K,A*31
$GPGGA,213454.000,4735.5694,N,12222.9112,W,1,05,1.79,-9.9,M,-17.4,M,,*72
$GPGSA,A,3,12,25,31,02,06,,,,,,,,2.05,1.79,0.98*09
$GPRMC,213454.000,A,4735.5694,N,12222.9112,W,0.13,238.56,240716,,,A*76
$GPVTG,238.56,T,,M,0.13,N,0.25,K,A*32
$GPGGA,213455.000,4735.5694,N,12222.9112,W,1,05,1.80,-9.9,M,-17.4,M,,*75
$GPGSA,A,3,12,25,31,02,06,,,,,,,,2.05,1.80,0.98*0F
$GPGSV,3,1,10,12,77,173,27,02,74,086,34,25,57,300,34,29,34,277,21*7D
$GPGSV,3,2,10,06,33,052,29,05,20,150,17,19,14,082,,31,12,326,21*74
$GPGSV,3,3,10,24,10,200,,38,,,*46
$GPRMC,213455.000,A,4735.5694,N,12222.9112,W,0.02,23.82,240716,,,A*46
$GPVTG,23.82,T,,M,0.02,N,0.04,K,A*00
$GPGGA,213456.000,4735.5694,N,12222.9112,W,1,05,1.79,-9.9,M,-17.4,M,,*70
$GPGSA,A,3,12,25,31,02,06,,,,,,,,2.04,1.79,0.98*08
$GPRMC,213456.000,A,4735.5694,N,12222.9112,W,0.11,10.56,240716,,,A*4E
$GPVTG,10.56,T,,M,0.11,N,0.21,K,A*0C
$GPGGA,213457.000,4735.5695,N,12222.9112,W,1,05,4.14,-9.9,M,-17.4,M,,*7E
$GPGSA,A,3,12,25,31,02,06,,,,,,,,6.47,4.14,4.97*0E
$GPRMC,213457.000,A,4735.5695,N,12222.9112,W,0.30,16.65,240716,,,A*4B
$GPVTG,16.65,T,,M,0.30,N,0.56,K,A*09
$GPGGA,213458.000,4735.5696,N,12222.9112,W,1,05,1.79,-9.9,M,-17.4,M,,*7C
$GPGSA,A,3,12,25,31,02,06,,,,,,,,2.04,1.79,0.98*08
$GPRMC,213458.000,A,4735.5696,N,12222.9112,W,0.71,37.45,240716,,,A*43
$GPVTG,37.45,T,,M,0.71,N,1.32,K,A*0E
$GPGGA,213459.000,4735.5699,N,12222.9110,W,1,05,1.79,-9.9,M,-17.4,M,,*70
$GPGSA,A,3,12,25,31,02,06,,,,,,,,2.04,1.79,0.98*08
$GPRMC,213459.000,A,4735.5699,N,12222.9110,W,0.58,37.17,240716,,,A*43
$GPVTG,37.17,T,,M,0.58,N,1.07,K,A*04
$GPGGA,213500.000,4735.5700,N,12222.9112,W,1,05,1.79,-9.9,M,-17.4,M,,*7E
$GPGSA,A,3,12,25,31,02,06,,,,,,,,2.04,1.79,0.98*08
$GPGSV,3,1,10,12,77,173,28,02,74,086,34,25,57,300,32,29,34,277,20*75
$GPGSV,3,2,10,06,33,052,30,05,20,150,,19,14,082,,31,12,326,24*7F
$GPGSV,3,3,10,24,10,200,,38,,,*46
$GPRMC,213500.000,A,4735.5700,N,12222.9112,W,0.30,25.84,240716,,,A*4A
$GPVTG,25.84,T,,M,0.30,N,0.55,K,A*05
$GPGGA,213501.000,4735.5702,N,12222.9109,W,1,05,1.79,-10.0,M,-17.4,M,,*46
$GPGSA,A,3,12,25,31,02,06,,,,,,,,2.04,1.79,0.98*08
$GPRMC,213501.000,A,4735.5702,N,12222.9109,W,0.34,47.07,240716,,,A*48
$GPVTG,47.07,T,,M,0.34,N,0.63,K,A*0B
$GPGGA,213502.000,4735.5707,N,12222.9109,W,1,05,1.79,-10.1,M,-17.4,M,,*41
$GPGSA,A,3,12,25,31,02,06,,,,,,,,2.05,1.79,0.98*09
$GPRMC,213502.000,A,4735.5707,N,12222.9109,W,0.35,12.18,240716,,,A*41
$GPVTG,12.18,T,,M,0.35,N,0.65,K,A*02
$GPGGA,213503.000,4735.5708,N,12222.9109,W,1,05,4.13,-10.1,M,-17.4,M,,*46
$GPGSA,A,3,12,25,31,02,06,,,,,,,,6.45,4.13,4.96*0A
$GPRMC,213503.000,A,4735.5708,N,12222.9109,W,0.33,3.74,240716,,,A*73
$GPVTG,3.74,T,,M,0.33,N,0.61,K,A*3A
$GPGGA,213504.000,4735.5709,N,12222.9108,W,1,05,4.13,-10.1,M,-17.4,M,,*41
$GPGSA,A,3,12,25,31,02,06,,,,,,,,6.45,4.13,4.95*09
$GPRMC,213504.000,A,4735.5709,N,12222.9108,W,0.48,356.26,240716,,,A*7C
$GPVTG,356.26,T,,M,0.48,N,0.90,K,A*3C
$GPGGA,213505.000,4735.5710,N,12222.9109,W,1,05,4.13,-10.1,M,-17.4,M,,*49
$GPGSA,A,3,12,25,31,02,06,,,,,,,,6.44,4.13,4.95*08
$GPGSV,3,1,10,12,77,173,27,02,74,086,34,25,58,300,33,29,34,277,22*76
$GPGSV,3,2,10,06,33,052,28,05,20,150,,19,14,082,,31,12,326,24*76
$GPGSV,3,3,10,24,09,200,,41,,,*40
$GPRMC,213505.000,A,4735.5710,N,12222.9109,W,0.63,12.10,240716,,,A*4B
$GPVTG,12.10,T,,M,0.63,N,1.17,K,A*0D
$GPGGA,213506.000,4735.5714,N,12222.9108,W,1,05,4.12,-10.2,M,-17.4,M,,*4D
$GPGSA,A,3,12,25,31,02,06,,,,,,,,6.44,4.12,4.95*09
$GPRMC,213506.000,A,4735.5714,N,12222.9108,W,0.60,4.32,240716,,,A*79
$GPVTG,4.32,T,,M,0.60,N,1.11,K,A*3F
$GPGGA,213507.000,4735.5717,N,12222.9105,W,1,05,4.12,-10.2,M,-17.4,M,,*42
$GPGSA,A,3,12,25,31,02,06,,,,,,,,6.44,4.12,4.95*09
$GPRMC,213507.000,A,4735.5717,N,12222.9105,W,0.61,11.14,240716,,,A*47
$GPVTG,11.14,T,,M,0.61,N,1.13,K,A*0C
$GPGGA,213508.000,4735.5720,N,12222.9103,W,1,05,4.12,-10.3,M,-17.4,M,,*4E
$GPGSA,A,3,12,25,31,02,06,,,,,,,,6.44,4.12,4.94*08
$GPRMC,213508.000,A,4735.5720,N,12222.9103,W,0.58,16.18,240716,,,A*4B
$GPVTG,16.18,T,,M,0.58,N,1.08,K,A*07
$GPGGA,213509.000,4735.5723,N,12222.9102,W,1,05,1.79,-10.3,M,-17.4,M,,*45
$GPGSA,A,3,12,25,31,02,06,,,,,,,,2.04,1.79,0.98*08
$GPRMC,213509.000,A,4735.5723,N,12222.9102,W,0.53,12.32,240716,,,A*4F
$GPVTG,12.32,T,,M,0.53,N,0.98,K,A*08
$GPGGA,213510.000,4735.5723,N,12222.9104,W,1,05,4.13,-10.4,M,-17.4,M,,*45
$GPGSA,A,3,12,25,31,02,06,,,,,,,,6.44,4.13,4.95*08
$GPGSV,3,1,10,12,77,173,26,02,74,086,33,25,58,300,33,29,34,277,19*78
$GPGSV,3,2,10,06,33,052,29,05,20,150,,19,14,082,,31,12,326,24*77
$GPGSV,3,3,10,24,09,200,,43,,,*42
$GPRMC,213510.000,A,4735.5723,N,12222.9104,W,0.44,0.37,240716,,,A*71
$GPVTG,0.37,T,,M,0.44,N,0.82,K,A*33
$GPGGA,213511.000,4735.5725,N,12222.9102,W,1,05,4.12,-10.5,M,-17.4,M,,*44
$GPGSA,A,3,12,25,31,02,06,,,,,,,,6.43,4.12,4.94*0F
$GPRMC,213511.000,A,4735.5725,N,12222.9102,W,0.46,14.88,240716,,,A*43
$GPVTG,14.88,T,,M,0.46,N,0.86,K,A*04
$GPGGA,213512.000,4735.5726,N,12222.9101,W,1,05,4.12,-10.5,M,-17.4,M,,*47
$GPGSA,A,3,12,25,31,02,06,,,,,,,,6.43,4.12,4.94*0F
$GPRMC,213512.000,A,4735.5726,N,12222.9101,W,0.32,350.63,240716,,,A*75
$GPVTG,350.63,T,,M,0.32,N,0.60,K,A*39
$GPGGA,213513.000,4735.5727,N,12222.9102,W,1,05,4.12,-10.5,M,-17.4,M,,*44
$GPGSA,A,3,12,25,31,02,06,,,,,,,,6.43,4.12,4.94*0F
$GPRMC,213513.000,A,4735.5727,N,12222.9102,W,0.39,340.78,240716,,,A*76
$GPVTG,340.78,T,,M,0.39,N,0.73,K,A*3B
$GPGGA,213514.000,4735.5728,N,12222.9102,W,1,05,1.79,-10.5,M,-17.4,M,,*44
$GPGSA,A,3,12,25,31,02,06,,,,,,,,2.04,1.79,0.98*08
$GPRMC,213514.000,A,4735.5728,N,12222.9102,W,0.37,335.81,240716,,,A*74
$GPVTG,335.81,T,,M,0.37,N,0.68,K,A*3B
$GPGGA,213515.000,4735.5729,N,12222.9103,W,1,05,1.79,-10.5,M,-17.4,M,,*45
$GPGSA,A,3,12,25,31,02,06,,,,,,,,2.04,1.79,0.98*08
$GPGSV,3,1,10,12,77,173,27,02,74,086,34,25,58,300,34,29,34,277,22*71
$GPGSV,3,2,10,06,33,052,29,05,20,150,,19,14,082,20,31,12,326,25*74
$GPGSV,3,3,10,24,09,200,,45,,,*44
$GPRMC,213515.000,A,4735.5729,N,12222.9103,W,0.42,323.80,240716,,,A*71
$GPVTG,323.80,T,,M,0.42,N,0.78,K,A*3E
$GPGGA,213516.000,4735.5730,N,12222.9104,W,1,05,1.79,-10.5,M,-17.4,M,,*49
$GPGSA,A,3,12,25,31,02,06,,,,,,,,2.04,1.79,0.98*08
$GPRMC,213516.000,A,4735.5730,N,12222.9104,W,0.47,317.72,240716,,,A*72
$GPVTG,317.72,T,,M,0.47,N,0.88,K,A*3E
$GPGGA,213517.000,4735.5731,N,12222.9105,W,1,05,1.79,-10.5,M,-17.4,M,,*48
$GPGSA,A,3,12,25,31,02,06,,,,,,,,2.04,1.79,0.98*08
$GPRMC,213517.000,A,4735.5731,N,12222.9105,W,0.49,321.90,240716,,,A*74
$GPVTG,321.90,T,,M,0.49,N,0.90,K,A*30
$GPGGA,213518.000,4735.5732,N,12222.9106,W,1,05,1.79,-10.5,M,-17.4,M,,*47
$GPGSA,A,3,12,25,31,02,06,,,,,,,,2.04,1.79,0.98*08
$GPRMC,213518.000,A,4735.5732,N,12222.9106,W,0.48,333.42,240716,,,A*76
$GPVTG,333.42,T,,M,0.48,N,0.89,K,A*35
$GPGGA,213519.000,4735.5733,N,12222.9107,W,1,05,1.79,-10.5,M,-17.4,M,,*46
$GPGSA,A,3,12,25,31,02,06,,,,,,,,2.04,1.79,0.98*08
$GPRMC,213519.000,A,4735.5733,N,12222.9107,W,0.40,330.28,240716,,,A*70
$GPVTG,330.28,T,,M,0.40,N,0.74,K,A*30
$GPGGA,213520.000,4735.5734,N,12222.9108,W,1,05,1.79,-10.5,M,-17.4,M,,*44
$GPGSA,A,3,12,25,31,02,06,,,,,,,,2.04,1.79,0.98*08
$GPGSV,3,1,10,12,77,173,27,02,74,085,34,25,58,300,33,29,34,277,22*75
$GPGSV,3,2,10,06,33,052,29,05,20,150,,19,14,082,,31,12,326,24*77
$GPGSV,3,3,10,24,09,200,,45,,,*44
$GPRMC,213520.000,A,4735.5734,N,12222.9108,W,0.49,337.88,240716,,,A*76
$GPVTG,337.88,T,,M,0.49,N,0.90,K,A*3E
$GPGGA,213521.000,4735.5736,N,12222.9109,W,1,05,1.79,-10.5,M,-17.4,M,,*46
$GPGSA,A,3,12,25,31,02,06,,,,,,,,2.04,1.79,0.98*08
$GPRMC,213521.000,A,4735.5736,N,12222.9109,W,0.57,344.94,240716,,,A*72
$GPVTG,344.94,T,,M,0.57,N,1.06,K,A*36
$GPGGA,213522.000,4735.5737,N,12222.9109,W,1,05,1.79,-10.5,M,-17.4,M,,*44
$GPGSA,A,3,12,25,31,02,06,,,,,,,,2.04,1.79,0.98*08
$GPRMC,213522.000,A,4735.5737,N,12222.9109,W,0.57,354.05,240716,,,A*79
$GPVTG,354.05,T,,M,0.57,N,1.07,K,A*3E
$GPGGA,213523.000,4735.5739,N,12222.9110,W,1,05,4.10,-10.5,M,-17.4,M,,*49
$GPGSA,A,3,12,25,31,02,06,,,,,,,,6.40,4.10,4.92*08
$GPRMC,213523.000,A,4735.5739,N,12222.9110,W,0.34,334.30,240716,,,A*7B
$GPVTG,334.30,T,,M,0.34,N,0.63,K,A*38
$GPGGA,213524.000,4735.5739,N,12222.9110,W,1,05,1.79,-10.5,M,-17.4,M,,*44
$GPGSA,A,3,12,25,31,02,06,,,,,,,,2.04,1.79,0.98*08
$GPRMC,213524.000,A,4735.5739,N,12222.9110,W,0.24,3.29,240716,,,A*72
$GPVTG,3.29,T,,M,0.24,N,0.44,K,A*33
$GPGGA,213525.000,4735.5740,N,12222.9110,W,1,05,4.09,-10.5,M,-17.4,M,,*49
$GPGSA,A,3,12,25,31,02,06,,,,,,,,6.40,4.09,4.91*03
$GPGSV,3,1,10,12,77,173,27,02,74,085,33,25,58,300,33,29,34,277,20*70
$GPGSV,3,2,10,06,32,052,30,05,20,150,,19,14,082,,31,12,326,24*7E
$GPGSV,3,3,10,24,09,200,,46,,,*47
$GPRMC,213525.000,A,4735.5740,N,12222.9110,W,0.24,332.90,240716,,,A*7E
$GPVTG,332.90,T,,M,0.24,N,0.44,K,A*30
$GPGGA,213526.000,4735.5741,N,12222.9111,W,1,05,1.79,-10.5,M,-17.4,M,,*48
$GPGSA,A,3,12,25,31,02,06,,,,,,,,2.04,1.79,0.98*08
$GPRMC,213526.000,A,4735.5741,N,12222.9111,W,0.09,326.06,240716,,,A*78
$GPVTG,326.06,T,,M,0.09,N,0.16,K,A*32
$GPGGA,213527.000,4735.5741,N,12222.9111,W,1,05,1.79,-10.5,M,-17.4,M,,*49
$GPGSA,A,3,12,25,31,02,06,,,,,,,,2.04,1.79,0.98*08
$GPRMC,213527.000,A,4735.5741,N,12222.9111,W,0.21,275.86,240716,,,A*7C
$GPVTG,275.86,T,,M,0.21,N,0.39,K,A*3A
$GPGGA,213528.000,4735.5741,N,12222.9112,W,1,05,1.79,-10.5,M,-17.4,M,,*45
$GPGSA,A,3,12,25,31,02,06,,,,,,,,2.04,1.79,0.98*08
$GPRMC,213528.000,A,4735.5741,N,12222.9112,W,0.14,261.74,240716,,,A*7E
$GPVTG,261.74,T,,M,0.14,N,0.27,K,A*3B
$GPGGA,213529.000,4735.5741,N,12222.9112,W,1,05,1.79,-10.5,M,-17.4,M,,*44
$GPGSA,A,3,12,25,31,02,06,,,,,,,,2.04,1.79,0.98*08
$GPRMC,213529.000,A,4735.5741,N,12222.9112,W,0.19,268.67,240716,,,A*79
$GPVTG,268.67,T,,M,0.19,N,0.36,K,A*3D
$GPGGA,213530.000,4735.5741,N,12222.9113,W,1,05,1.79,-10.5,M,-17.4,M,,*4D
$GPGSA,A,3,12,25,31,02,06,,,,,,,,2.04,1.79,0.98*08
$GPGSV,3,1,10,12,77,172,27,02,74,085,33,25,58,300,34,29,34,277,23*75
$GPGSV,3,2,10,06,32,052,28,05,20,150,,19,14,082,,31,12,326,23*70
$GPGSV,3,3,10,24,09,200,,47,,,*46
$GPRMC,213530.000,A,4735.5741,N,12222.9113,W,0.01,272.60,240716,,,A*75
$GPVTG,272.60,T,,M,0.01,N,0.02,K,A*3F
$GPGGA,213531.000,4735.5741,N,12222.9113,W,1,05,1.79,-10.5,M,-17.4,M,,*4C
$GPGSA,A,3,12,25,31,02,06,,,,,,,,2.04,1.79,0.98*08
$GPRMC,213531.000,A,4735.5741,N,12222.9113,W,0.14,156.43,240716,,,A*74
$GPVTG,156.43,T,,M,0.14,N,0.26,K,A*39
$GPGGA,213532.000,4735.5740,N,12222.9113,W,1,05,1.79,-10.5,M,-17.4,M,,*4E
$GPGSA,A,3,12,25,31,02,06,,,,,,,,2.04,1.79,0.98*08
$GPRMC,213532.000,A,4735.5740,N,12222.9113,W,0.18,152.64,240716,,,A*7B
$GPVTG,152.64,T,,M,0.18,N,0.33,K,A*30
$GPGGA,213533.000,4735.5740,N,12222.9113,W,1,05,1.79,-10.5,M,-17.4,M,,*4F
$GPGSA,A,3,12,25,31,02,06,,,,,,,,2.04,1.79,0.98*08
$GPRMC,213533.000,A,4735.5740,N,12222.9113,W,0.25,187.05,240716,,,A*7B
$GPVTG,187.05,T,,M,0.25,N,0.46,K,A*33
$GPGGA,213534.000,4735.5739,N,12222.9113,W,1,05,1.79,-10.5,M,-17.4,M,,*46
$GPGSA,A,3,12,25,31,02,06,,,,,,,,2.04,1.79,0.98*08
$GPRMC,213534.000,A,4735.5739,N,12222.9113,W,0.40,213.65,240716,,,A*79
$GPVTG,213.65,T,,M,0.40,N,0.74,K,A*39
$GPGGA,213535.000,4735.5738,N,12222.9114,W,1,05,1.79,-10.5,M,-17.4,M,,*41
$GPGSA,A,3,12,25,31,02,06,,,,,,,,2.04,1.79,0.98*08
$GPGSV,3,1,10,12,77,172,27,02,74,085,32,25,58,300,34,29,34,277,22*75
$GPGSV,3,2,10,06,32,052,30,05,20,150,,19,13,082,,31,12,326,24*79
$GPGSV,3,3,10,24,09,200,,49,,,*48
$GPRMC,213535.000,A,4735.5738,N,12222.9114,W,0.39,213.07,240716,,,A*74
$GPVTG,213.07,T,,M,0.39,N,0.73,K,A*34
$GPGGA,213536.000,4735.5737,N,12222.9114,W,1,05,1.79,-10.5,M,-17.4,M,,*4D
$GPGSA,A,3,12,25,31,02,06,,,,,,,,2.04,1.79,0.98*08
$GPRMC,213536.000,A,4735.5737,N,12222.9114,W,0.37,212.23,240716,,,A*71
$GPVTG,212.23,T,,M,0.37,N,0.68,K,A*37
$GPGGA,213537.000,4735.5736,N,12222.9115,W,1,05,1.79,-10.5,M,-17.4,M,,*4C
$GPGSA,A,3,12,25,31,02,06,,,,,,,,2.04,1.79,0.98*08
$GPRMC,213537.000,A,4735.5736,N,12222.9115,W,0.36,153.05,240716,,,A*73
$GPVTG,153.05,T,,M,0.36,N,0.67,K,A*3B
$GPGGA,213538.000,4735.5736,N,12222.9114,W,1,05,1.79,-10.5,M,-17.4,M,,*42
$GPGSA,A,3,12,25,31,02,06,,,,,,,,2.04,1.79,0.98*08
$GPRMC,213538.000,A,4735.5736,N,12222.9114,W,0.29,169.41,240716,,,A*7A
$GPVTG,169.41,T,,M,0.29,N,0.54,K,A*3C
$GPGGA,213539.000,4735.5735,N,12222.9114,W,1,05,1.79,-10.5,M,-17.4,M,,*40
$GPGSA,A,3,12,25,31,02,06,,,,,,,,2.04,1.79,0.98*08
$GPRMC,213539.000,A,4735.5735,N,12222.9114,W,0.34,174.04,240716,,,A*79
$GPVTG,174.04,T,,M,0.34,N,0.64,K,A*3E
$GPGGA,213540.000,4735.5734,N,12222.9114,W,1,05,1.79,-10.5,M,-17.4,M,,*4F
$GPGSA,A,3,12,25,31,02,06,,,,,,,,2.04,1.79,0.98*08
$GPGSV,3,1,10,12,77,172,27,02,74,085,32,25,58,299,34,29,34,277,20*76
$GPGSV,3,2,10,06,32,052,28,05,20,150,,19,13,082,,31,12,326,23*77
$GPGSV,3,3,10,24,09,200,,50,,,*40
$GPRMC,213540.000,A,4735.5734,N,12222.9114,W,0.27,184.15,240716,,,A*7B
$GPVTG,184.15,T,,M,0.27,N,0.51,K,A*35
$GPGGA,213541.000,4735.5733,N,12222.9114,W,1,05,1.79,-10.5,M,-17.4,M,,*49
$GPGSA,A,3,12,25,31,02,06,,,,,,,,2.04,1.79,0.98*08
$GPRMC,213541.000,A,4735.5733,N,12222.9114,W,0.08,197.85,240716,,,A*7B
$GPVTG,197.85,T,,M,0.08,N,0.15,K,A*33
$GPGGA,213542.000,4735.5733,N,12222.9114,W,1,05,1.79,-10.5,M,-17.4,M,,*4A
$GPGSA,A,3,12,25,31,02,06,,,,,,,,2.04,1.79,0.98*08
$GPRMC,213542.000,A,4735.5733,N,12222.9114,W,0.04,326.40,240716,,,A*75
$GPVTG,326.40,T,,M,0.04,N,0.07,K,A*3D
$GPGGA,213543.000,4735.5733,N,12222.9114,W,1,05,1.79,-10.5,M,-17.4,M,,*4B
$GPGSA,A,3,12,25,31,02,06,,,,,,,,2.04,1.79,0.98*08
$GPRMC,213543.000,A,4735.5733,N,12222.9114,W,0.14,324.27,240716,,,A*76
$GPVTG,324.27,T,,M,0.14,N,0.26,K,A*3C
$GPGGA,213544.000,4735.5734,N,12222.9115,W,1,05,1.79,-10.5,M,-17.4,M,,*4A
$GPGSA,A,3,12,25,31,02,06,,,,,,,,2.04,1.79,0.98*08
$GPRMC,213544.000,A,4735.5734,N,12222.9115,W,0.09,304.56,240716,,,A*7F
$GPVTG,304.56,T,,M,0.09,N,0.17,K,A*36
$GPGGA,213545.000,4735.5734,N,12222.9115,W,1,05,1.79,-10.5,M,-17.4,M,,*4B
$GPGSA,A,3,12,25,31,02,06,,,,,,,,2.04,1.79,0.98*08
$GPGSV,3,1,10,12,77,172,27,02,74,085,33,25,58,299,34,29,34,277,19*7D
$GPGSV,3,2,10,06,32,052,30,05,20,150,,19,13,082,,31,12,326,23*7E
$GPGSV,3,3,10,24,09,200,,50,,,*40
$GPRMC,213545.000,A,4735.5734,N,12222.9115,W,0.19,251.13,240716,,,A*7F
$GPVTG,251.13,T,,M,0.19,N,0.36,K,A*34
$GPGGA,213546.000,4735.5734,N,12222.9116,W,1,05,1.79,-10.5,M,-17.4,M,,*4B
$GPGSA,A,3,12,25,31,02,06,,,,,,,,2.04,1.79,0.98*08
$GPRMC,213546.000,A,4735.5734,N,12222.9116,W,0.22,315.20,240716,,,A*76
$GPVTG,315.20,T,,M,0.22,N,0.40,K,A*3C
$GPGGA,213547.000,4735.5734,N,12222.9116,W,1,05,1.79,-10.5,M,-17.4,M,,*4A
$GPGSA,A,3,12,25,31,02,06,,,,,,,,2.04,1.79,0.98*08
$GPRMC,213547.000,A,4735.5734,N,12222.9116,W,0.21,353.10,240716,,,A*75
$GPVTG,353.10,T,,M,0.21,N,0.39,K,A*30
$GPGGA,213548.000,4735.5734,N,12222.9116,W,1,05,4.06,-10.5,M,-17.4,M,,*48
$GPGSA,A,3,12,25,31,02,06,,,,,,,,6.34,4.06,4.88*07
$GPRMC,213548.000,A,4735.5734,N,12222.9116,W,0.32,282.46,240716,,,A*76
$GPVTG,282.46,T,,M,0.32,N,0.59,K,A*3A
$GPGGA,213549.000,4735.5735,N,12222.9118,W,1,05,1.79,-10.5,M,-17.4,M,,*4B
$GPGSA,A,3,12,25,31,02,06,,,,,,,,2.04,1.79,0.98*08
$GPRMC,213549.000,A,4735.5735,N,12222.9118,W,0.26,290.75,240716,,,A*7E
$GPVTG,290.75,T,,M,0.26,N,0.48,K,A*3C
$GPGGA,213550.000,4735.5735,N,12222.9118,W,1,05,1.79,-10.5,M,-17.4,M,,*43
$GPGSA,A,3,12,25,31,02,06,,,,,,,,2.04,1.79,0.98*08
$GPGSV,3,1,10,12,77,172,27,02,74,085,33,25,58,299,35,29,34,277,18*7D
$GPGSV,3,2,10,06,32,052,31,05,20,150,,19,13,082,,31,12,326,24*78
$GPGSV,3,3,10,24,09,200,,42,,,*43
$GPRMC,213550.000,A,4735.5735,N,12222.9118,W,0.28,46.21,240716,,,A*40
$GPVTG,46.21,T,,M,0.28,N,0.51,K,A*02
$GPGGA,213551.000,4735.5736,N,12222.9118,W,1,05,1.79,-10.5,M,-17.4,M,,*41
$GPGSA,A,3,12,25,31,02,06,,,,,,,,2.04,1.79,0.98*08
$GPRMC,213551.000,A,4735.5736,N,12222.9118,W,0.36,43.46,240716,,,A*49
$GPVTG,43.46,T,,M,0.36,N,0.66,K,A*0D
$GPGGA,213552.000,4735.5736,N,12222.9117,W,1,05,1.79,-10.5,M,-17.4,M,,*4D
$GPGSA,A,3,12,25,31,02,06,,,,,,,,2.04,1.79,0.98*08
$GPRMC,213552.000,A,4735.5736,N,12222.9117,W,0.39,38.45,240716,,,A*45
$GPVTG,38.45,T,,M,0.39,N,0.72,K,A*08
$GPGGA,213553.000,4735.5737,N,12222.9116,W,1,05,1.79,-10.5,M,-17.4,M,,*4C
$GPGSA,A,3,12,25,31,02,06,,,,,,,,2.04,1.79,0.98*08
$GPRMC,213553.000,A,4735.5737,N,12222.9116,W,0.14,215.29,240716,,,A*7C
$GPVTG,215.29,T,,M,0.14,N,0.26,K,A*31
$GPGGA,213554.000,4735.5737,N,12222.9116,W,1,05,1.79,-10.5,M,-17.4,M,,*4B
$GPGSA,A,3,12,25,31,02,06,,,,,,,,2.04,1.79,0.98*08
$GPRMC,213554.000,A,4735.5737,N,12222.9116,W,0.35,115.65,240716,,,A*73
$GPVTG,115.65,T,,M,0.35,N,0.64,K,A*3F
$GPGGA,213555.000,4735.5736,N,12222.9115,W,1,05,1.79,-10.5,M,-17.4,M,,*48
$GPGSA,A,3,12,25,31,02,06,,,,,,,,2.04,1.79,0.98*08
$GPGSV,3,1,10,12,77,172,27,02,74,084,33,25,58,299,33,29,34,277,20*71
$GPGSV,3,2,10,06,32,052,29,05,21,149,,19,13,082,,31,12,326,23*7F
$GPGSV,3,3,10,24,09,200,,33,,,*45
$GPRMC,213555.000,A,4735.5736,N,12222.9115,W,0.41,57.08,240716,,,A*4F
$GPVTG,57.08,T,,M,0.41,N,0.76,K,A*03
$GPGGA,213556.000,4735.5737,N,12222.9113,W,1,05,1.79,-10.5,M,-17.4,M,,*4C
$GPGSA,A,3,12,25,31,02,06,,,,,,,,2.04,1.79,0.98*08
$GPRMC,213556.000,A,4735.5737,N,12222.9113,W,0.35,41.49,240716,,,A*4A
$GPVTG,41.49,T,,M,0.35,N,0.65,K,A*00
$GPGGA,213557.000,4735.5738,N,12222.9112,W,1,05,1.79,-10.5,M,-17.4,M,,*43
$GPGSA,A,3,12,25,31,02,06,,,,,,,,2.04,1.79,0.98*08
$GPRMC,213557.000,A,4735.5738,N,12222.9112,W,0.33,13.71,240716,,,A*4F
$GPVTG,13.71,T,,M,0.33,N,0.61,K,A*0E
$GPGGA,213558.000,4735.5739,N,12222.9112,W,1,05,4.04,-10.5,M,-17.4,M,,*42
$GPGSA,A,3,12,25,31,02,06,,,,,,,,6.32,4.04,4.86*0D
$GPRMC,213558.000,A,4735.5739,N,12222.9112,W,0.17,329.93,240716,,,A*71
$GPVTG,329.93,T,,M,0.17,N,0.31,K,A*3B
$GPGGA,213559.000,4735.5739,N,12222.9112,W,1,05,1.79,-10.5,M,-17.4,M,,*4C
$GPGSA,A,3,12,25,31,02,06,,,,,,,,2.04,1.79,0.98*08
$GPRMC,213559.000,A,4735.5739,N,12222.9112,W,0.20,30.59,240716,,,A*49
$GPVTG,30.59,T,,M,0.20,N,0.37,K,A*04
$GPGGA,213600.000,4735.5740,N,12222.9112,W,1,05,1.78,-10.5,M,-17.4,M,,*4C
$GPGSA,A,3,12,25,31,02,06,,,,,,,,2.04,1.78,0.98*09
$GPGSV,3,1,10,12,77,172,26,02,74,084,34,25,58,299,34,29,34,277,22*72
$GPGSV,3,2,10,06,32,052,28,05,21,149,17,19,13,082,,31,12,326,23*78
$GPGSV,3,3,10,24,09,200,,37,,,*41
$GPRMC,213600.000,A,4735.5740,N,12222.9112,W,0.43,27.56,240716,,,A*44
$GPVTG,27.56,T,,M,0.43,N,0.80,K,A*04
$GPGGA,213601.000,4735.5741,N,12222.9111,W,1,05,1.79,-10.5,M,-17.4,M,,*4E
$GPGSA,A,3,12,25,31,02,06,,,,,,,,2.04,1.79,0.98*08
$GPRMC,213601.000,A,4735.5741,N,12222.9111,W,0.29,28.26,240716,,,A*43
$GPVTG,28.26,T,,M,0.29,N,0.55,K,A*08
$GPGGA,213602.000,4735.5742,N,12222.9110,W,1,05,1.79,-10.5,M,-17.4,M,,*4F
$GPGSA,A,3,12,25,31,02,06,,,,,,,,2.04,1.79,0.98*08
$GPRMC,213602.000,A,4735.5742,N,12222.9110,W,0.48,20.63,240716,,,A*4C
$GPVTG,20.63,T,,M,0.48,N,0.90,K,A*0F
$GPGGA,213603.000,4735.5743,N,12222.9110,W,1,05,1.79,-10.5,M,-17.4,M,,*4F
$GPGSA,A,3,12,25,31,02,06,,,,,,,,2.04,1.79,0.98*08
$GPRMC,213603.000,A,4735.5743,N,12222.9110,W,0.28,8.61,240716,,,A*72
$GPVTG,8.61,T,,M,0.28,N,0.52,K,A*3F
$GPGGA,213604.000,4735.5744,N,12222.9109,W,1,06,2.33,-10.5,M,-17.4,M,,*49
$GPGSA,A,3,12,25,31,02,19,06,,,,,,,3.18,2.33,2.17*04
$GPRMC,213604.000,A,4735.5744,N,12222.9109,W,0.20,354.41,240716,,,A*7A
$GPVTG,354.41,T,,M,0.20,N,0.37,K,A*3C
$GPGGA,213605.000,4735.5744,N,12222.9110,W,1,06,2.32,-10.5,M,-17.4,M,,*41
$GPGSA,A,3,12,25,31,02,19,06,,,,,,,3.18,2.32,2.17*05
$GPGSV,3,1,10,12,77,172,28,02,74,084,34,25,58,299,36,29,34,277,21*7D
$GPGSV,3,2,10,06,32,052,29,05,21,149,20,19,13,082,23,31,12,326,22*7D
$GPGSV,3,3,10,24,09,200,,37,,,*41
$GPRMC,213605.000,A,4735.5744,N,12222.9110,W,0.19,359.60,240716,,,A*77
$GPVTG,359.60,T,,M,0.19,N,0.36,K,A*39
$GPGGA,213606.000,4735.5745,N,12222.9109,W,1,05,4.02,-10.5,M,-17.4,M,,*4D
$GPGSA,A,3,12,25,31,02,06,,,,,,,,6.30,4.02,4.84*0B
$GPRMC,213606.000,A,4735.5745,N,12222.9109,W,0.25,15.17,240716,,,A*49
$GPVTG,15.17,T,,M,0.25,N,0.47,K,A*0B
$GPGGA,213607.000,4735.5745,N,12222.9109,W,1,05,1.78,-10.5,M,-17.4,M,,*44
$GPGSA,A,3,12,25,31,02,06,,,,,,,,2.03,1.78,0.98*0E
$GPRMC,213607.000,A,4735.5745,N,12222.9109,W,0.32,11.25,240716,,,A*4B
$GPVTG,11.25,T,,M,0.32,N,0.60,K,A*0D
$GPGGA,213608.000,4735.5746,N,12222.9109,W,1,05,4.02,-10.5,M,-17.4,M,,*40
$GPGSA,A,3,12,25,31,02,06,,,,,,,,6.29,4.02,4.84*03
$GPRMC,213608.000,A,4735.5746,N,12222.9109,W,0.40,347.31,240716,,,A*77
$GPVTG,347.31,T,,M,0.40,N,0.74,K,A*38
$GPGGA,213609.000,4735.5747,N,12222.9109,W,1,05,4.02,-10.5,M,-17.4,M,,*40
$GPGSA,A,3,12,25,31,02,06,,,,,,,,6.29,4.02,4.84*03
$GPRMC,213609.000,A,4735.5747,N,12222.9109,W,0.33,355.44,240716,,,A*72
$GPVTG,355.44,T,,M,0.33,N,0.62,K,A*3A
$GPGGA,213610.000,4735.5748,N,12222.9110,W,1,05,4.02,-10.5,M,-17.4,M,,*4F
$GPGSA,A,3,12,25,31,02,06,,,,,,,,6.29,4.02,4.83*04
$GPGSV,3,1,10,12,77,172,27,02,74,084,33,25,58,299,34,29,34,277,24*72
$GPGSV,3,2,10,06,32,052,29,05,21,149,20,19,13,082,,31,12,326,21*7F
$GPGSV,3,3,10,24,09,200,,39,,,*4F
$GPRMC,213610.000,A,4735.5748,N,12222.9110,W,0.46,0.37,240716,,,A*78
$GPVTG,0.37,T,,M,0.46,N,0.86,K,A*35
$GPGGA,213611.000,4735.5749,N,12222.9109,W,1,05,4.02,-10.5,M,-17.4,M,,*47
$GPGSA,A,3,12,25,31,02,06,,,,,,,,6.28,4.02,4.83*05
$GPRMC,213611.000,A,4735.5749,N,12222.9109,W,0.34,20.78,240716,,,A*4C
$GPVTG,20.78,T,,M,0.34,N,0.63,K,A*02
$GPGGA,213612.000,4735.5750,N,12222.9109,W,1,05,1.78,-10.5,M,-17.4,M,,*44
$GPGSA,A,3,12,25,31,02,06,,,,,,,,2.03,1.78,0.98*0E
$GPRMC,213612.000,A,4735.5750,N,12222.9109,W,0.36,26.63,240716,,,A*49
$GPVTG,26.63,T,,M,0.36,N,0.67,K,A*08
$GPGGA,213613.000,4735.5751,N,12222.9108,W,1,05,1.78,-10.5,M,-17.4,M,,*45
$GPGSA,A,3,12,25,31,02,06,,,,,,,,2.04,1.78,0.98*09
$GPRMC,213613.000,A,4735.5751,N,12222.9108,W,0.26,22.74,240716,,,A*4B
$GPVTG,22.74,T,,M,0.26,N,0.47,K,A*09
$GPGGA,213614.000,4735.5752,N,12222.9108,W,1,05,1.78,-10.5,M,-17.4,M,,*41
$GPGSA,A,3,12,25,31,02,06,,,,,,,,2.03,1.78,0.98*0E
$GPRMC,213614.000,A,4735.5752,N,12222.9108,W,0.28,32.78,240716,,,A*4C
$GPVTG,32.78,T,,M,0.28,N,0.52,K,A*0E
$GPGGA,213615.000,4735.5752,N,12222.9107,W,1,05,1.78,-10.5,M,-17.4,M,,*4F
$GPGSA,A,3,12,25,31,02,06,,,,,,,,2.04,1.78,0.98*09
$GPGSV,3,1,10,12,77,172,26,02,74,084,34,25,58,299,34,29,34,277,24*74
$GPGSV,3,2,10,06,32,052,29,05,21,149,,19,13,082,,31,12,326,22*7E
$GPGSV,3,3,10,24,09,200,,44,,,*45
$GPRMC,213615.000,A,4735.5752,N,12222.9107,W,0.14,27.51,240716,,,A*42
$GPVTG,27.51,T,,M,0.14,N,0.27,K,A*0C
$GPGGA,213616.000,4735.5753,N,12222.9107,W,1,05,1.78,-10.5,M,-17.4,M,,*4D
$GPGSA,A,3,12,25,31,02,06,,,,,,,,2.04,1.78,0.98*09
$GPRMC,213616.000,A,4735.5753,N,12222.9107,W,0.15,339.72,240716,,,A*7C
$GPVTG,339.72,T,,M,0.15,N,0.27,K,A*30
$GPGGA,213617.000,4735.5753,N,12222.9107,W,1,05,1.78,-10.5,M,-17.4,M,,*4C
$GPGSA,A,3,12,25,31,02,06,,,,,,,,2.03,1.78,0.98*0E
$GPRMC,213617.000,A,4735.5753,N,12222.9107,W,0.08,244.11,240716,,,A*7F
$GPVTG,244.11,T,,M,0.08,N,0.14,K,A*32
$GPGGA,213618.000,4735.5753,N,12222.9108,W,1,05,1.78,-10.5,M,-17.4,M,,*4C
$GPGSA,A,3,12,25,31,02,06,,,,,,,,2.03,1.78,0.98*0E
$GPRMC,213618.000,A,4735.5753,N,12222.9108,W,0.16,193.21,240716,,,A*7A
$GPVTG,193.21,T,,M,0.16,N,0.30,K,A*31
$GPGGA,213619.000,4735.5752,N,12222.9108,W,1,05,1.78,-10.5,M,-17.4,M,,*4C
$GPGSA,A,3,12,25,31,02,06,,,,,,,,2.03,1.78,0.98*0E
$GPRMC,213619.000,A,4735.5752,N,12222.9108,W,0.29,190.25,240716,,,A*71
$GPVTG,190.25,T,,M,0.29,N,0.54,K,A*38
$GPGGA,213620.000,4735.5751,N,12222.9108,W,1,05,1.78,-10.5,M,-17.4,M,,*45
$GPGSA,A,3,12,25,31,02,06,,,,,,,,2.03,1.78,0.98*0E
$GPGSV,3,1,10,12,77,172,27,02,74,084,33,25,58,299,34,29,34,277,24*72
$GPGSV,3,2,10,06,32,052,29,05,21,149,,19,13,082,,31,12,326,22*7E
$GPGSV,3,3,10,24,09,200,,40,,,*41
$GPRMC,213620.000,A,4735.5751,N,12222.9108,W,0.18,190.01,240716,,,A*7C
$GPVTG,190.01,T,,M,0.18,N,0.34,K,A*3A
$GPGGA,213621.000,4735.5751,N,12222.9108,W,1,05,1.78,-10.5,M,-17.4,M,,*44
$GPGSA,A,3,12,25,31,02,06,,,,,,,,2.03,1.78,0.98*0E
$GPRMC,213621.000,A,4735.5751,N,12222.9108,W,0.20,154.18,240716,,,A*76
$GPVTG,154.18,T,,M,0.20,N,0.36,K,A*33
$GPGGA,213622.000,4735.5750,N,12222.9108,W,1,05,1.78,-10.5,M,-17.4,M,,*46
$GPGSA,A,3,12,25,31,02,06,,,,,,,,2.03,1.78,0.98*0E
$GPRMC,213622.000,A,4735.5750,N,12222.9108,W,0.28,181.23,240716,,,A*7C
$GPVTG,181.23,T,,M,0.28,N,0.52,K,A*39
$GPGGA,213623.000,4735.5750,N,12222.9108,W,1,05,1.78,-10.5,M,-17.4,M,,*47
$GPGSA,A,3,12,25,31,02,06,,,,,,,,2.03,1.78,0.98*0E
$GPRMC,213623.000,A,4735.5750,N,12222.9108,W,0.47,192.74,240716,,,A*74
$GPVTG,192.74,T,,M,0.47,N,0.87,K,A*38
$GPGGA,213624.000,4735.5748,N,12222.9108,W,1,05,1.78,-10.5,M,-17.4,M,,*49
$GPGSA,A,3,12,25,31,02,06,,,,,,,,2.03,1.78,0.98*0E
$GPRMC,213624.000,A,4735.5748,N,12222.9108,W,0.46,179.99,240716,,,A*7D
$GPVTG,179.99,T,,M,0.46,N,0.85,K,A*3D
$GPGGA,213625.000,4735.5747,N,12222.9108,W,1,05,1.78,-10.5,M,-17.4,M,,*47
$GPGSA,A,3,12,25,31,02,06,,,,,,,,2.03,1.78,0.98*0E
$GPGSV,3,1,10,12,77,172,24,02,74,084,34,25,58,299,33,29,34,277,25*70
$GPGSV,3,2,10,06,32,052,30,05,21,149,,19,13,082,,31,12,326,22*76
$GPGSV,3,3,10,24,09,200,,40,,,*41
$GPRMC,213625.000,A,4735.5747,N,12222.9108,W,0.51,164.53,240716,,,A*7F
$GPVTG,164.53,T,,M,0.51,N,0.94,K,A*31
$GPGGA,213626.000,4735.5746,N,12222.9108,W,1,05,1.78,-10.5,M,-17.4,M,,*45
$GPGSA,A,3,12,25,31,02,06,,,,,,,,2.03,1.78,0.98*0E
$GPRMC,213626.000,A,4735.5746,N,12222.9108,W,0.44,157.70,240716,,,A*78
$GPVTG,157.70,T,,M,0.44,N,0.81,K,A*30
$GPGGA,213627.000,4735.5744,N,12222.9107,W,1,05,1.78,-10.5,M,-17.4,M,,*49
$GPGSA,A,3,12,25,31,02,06,,,,,,,,2.03,1.78,0.98*0E
$GPRMC,213627.000,A,4735.5744,N,12222.9107,W,0.40,200.10,240716,,,A*77
$GPVTG,200.10,T,,M,0.40,N,0.74,K,A*39
$GPGGA,213628.000,4735.5743,N,12222.9108,W,1,05,1.78,-10.5,M,-17.4,M,,*4E
$GPGSA,A,3,12,25,31,02,06,,,,,,,,2.03,1.78,0.98*0E
$GPRMC,213628.000,A,4735.5743,N,12222.9108,W,0.24,202.03,240716,,,A*72
$GPVTG,202.03,T,,M,0.24,N,0.45,K,A*39
$GPGGA,213629.000,4735.5743,N,12222.9108,W,1,05,1.78,-10.5,M,-17.4,M,,*4F
$GPGSA,A,3,12,25,31,02,06,,,,,,,,2.03,1.78,0.98*0E
$GPRMC,213629.000,A,4735.5743,N,12222.9108,W,0.05,85.90,240716,,,A*47
$GPVTG,85.90,T,,M,0.05,N,0.10,K,A*0D
$GPGGA,213630.000,4735.5743,N,12222.9108,W,1,05,1.78,-10.5,M,-17.4,M,,*47
$GPGSA,A,3,12,25,31,02,06,,,,,,,,2.03,1.78,0.98*0E
$GPGSV,3,1,10,12,77,172,24,02,74,083,34,25,58,299,33,29,34,277,25*77
$GPGSV,3,2,10,48,34,194,,06,32,052,29,05,21,149,19,19,13,082,*77
$GPGSV,3,3,10,31,12,326,21,24,09,200,*70
$GPRMC,213630.000,A,4735.5743,N,12222.9108,W,0.19,66.97,240716,,,A*48
$GPVTG,66.97,T,,M,0.19,N,0.35,K,A*0D
$GPGGA,213631.000,4735.5743,N,12222.9107,W,1,05,1.78,-10.5,M,-17.4,M,,*49
$GPGSA,A,3,12,25,31,02,06,,,,,,,,2.03,1.78,0.98*0E
$GPRMC,213631.000,A,4735.5743,N,12222.9107,W,0.10,138.47,240716,,,A*78
$GPVTG,138.47,T,,M,0.10,N,0.18,K,A*3C
$GPGGA,213632.000,4735.5743,N,12222.9107,W,1,05,1.78,-10.5,M,-17.4,M,,*4A
$GPGSA,A,3,12,25,31,02,06,,,,,,,,2.03,1.78,0.98*0E
$GPRMC,213632.000,A,4735.5743,N,12222.9107,W,0.03,195.22,240716,,,A*7D
$GPVTG,195.22,T,,M,0.03,N,0.05,K,A*36
$GPGGA,213633.000,4735.5743,N,12222.9107,W,1,05,1.78,-10.5,M,-17.4,M,,*4B
$GPGSA,A,3,12,25,31,02,06,,,,,,,,2.03,1.78,0.98*0E
$GPRMC,213633.000,A,4735.5743,N,12222.9107,W,0.13,179.54,240716,,,A*7E
$GPVTG,179.54,T,,M,0.13,N,0.24,K,A*37
$GPGGA,213634.000,4735.5742,N,12222.9107,W,1,05,1.78,-10.5,M,-17.4,M,,*4D
$GPGSA,A,3,12,25,31,02,06,,,,,,,,2.03,1.78,0.98*0E
$GPRMC,213634.000,A,4735.5742,N,12222.9107,W,0.48,194.44,240716,,,A*74
$GPVTG,194.44,T,,M,0.48,N,0.89,K,A*3C
$GPGGA,213635.000,4735.5741,N,12222.9107,W,1,05,1.78,-10.5,M,-17.4,M,,*4F
$GPGSA,A,3,12,25,31,02,06,,,,,,,,2.03,1.78,0.98*0E
$GPGSV,3,1,10,12,77,172,25,02,74,083,34,25,58,299,32,29,34,277,26*74
$GPGSV,3,2,10,48,34,194,,06,32,052,32,05,21,149,22,19,13,082,*75
$GPGSV,3,3,10,31,12,326,19,24,09,200,*7B
$GPRMC,213635.000,A,4735.5741,N,12222.9107,W,0.24,191.10,240716,,,A*78
$GPVTG,191.10,T,,M,0.24,N,0.45,K,A*32
$GPGGA,213636.000,4735.5740,N,12222.9108,W,1,05,1.78,-10.5,M,-17.4,M,,*42
$GPGSA,A,3,12,25,31,02,06,,,,,,,,2.03,1.78,0.98*0E
$GPRMC,213636.000,A,4735.5740,N,12222.9108,W,0.15,160.18,240716,,,A*71
$GPVTG,160.18,T,,M,0.15,N,0.28,K,A*3D
$GPGGA,213637.000,4735.5740,N,12222.9107,W,1,05,1.78,-10.5,M,-17.4,M,,*4C
$GPGSA,A,3,12,25,31,02,06,,,,,,,,2.03,1.78,0.98*0E
$GPRMC,213637.000,A,4735.5740,N,12222.9107,W,0.10,132.07,240716,,,A*73
$GPVTG,132.07,T,,M,0.10,N,0.18,K,A*32
$GPGGA,213638.000,4735.5740,N,12222.9107,W,1,05,1.78,-10.5,M,-17.4,M,,*43
$GPGSA,A,3,12,25,31,02,06,,,,,,,,2.03,1.78,0.98*0E
$GPRMC,213638.000,A,4735.5740,N,12222.9107,W,0.02,228.56,240716,,,A*73
$GPVTG,228.56,T,,M,0.02,N,0.04,K,A*30
$GPGGA,213639.000,4735.5740,N,12222.9107,W,1,05,1.78,-10.5,M,-17.4,M,,*42
$GPGSA,A,3,12,25,31,02,06,,,,,,,,2.03,1.78,0.98*0E
$GPRMC,213639.000,A,4735.5740,N,12222.9107,W,0.24,101.78,240716,,,A*72
$GPVTG,101.78,T,,M,0.24,N,0.44,K,A*34
$GPGGA,213640.000,4735.5740,N,12222.9106,W,1,05,1.78,-10.5,M,-17.4,M,,*4D
$GPGSA,A,3,12,25,31,02,06,,,,,,,,2.03,1.78,0.98*0E
$GPGSV,3,1,10,12,76,172,24,02,74,083,34,25,58,299,33,29,34,277,26*75
$GPGSV,3,2,10,51,33,159,,06,32,052,31,05,21,149,21,19,13,082,*7B
$GPGSV,3,3,10,31,12,326,21,24,09,200,*70
$GPRMC,213640.000,A,4735.5740,N,12222.9106,W,0.22,124.19,240716,,,A*7B
$GPVTG,124.19,T,,M,0.22,N,0.40,K,A*36
$GPGGA,213641.000,4735.5739,N,12222.9105,W,1,05,1.78,-10.5,M,-17.4,M,,*41
$GPGSA,A,3,12,25,31,02,06,,,,,,,,2.03,1.78,0.98*0E
$GPRMC,213641.000,A,4735.5739,N,12222.9105,W,0.21,161.52,240716,,,A*7A
$GPVTG,161.52,T,,M,0.21,N,0.39,K,A*35
$GPGGA,213642.000,4735.5739,N,12222.9105,W,1,05,1.78,-10.5,M,-17.4,M,,*42
$GPGSA,A,3,12,25,31,02,06,,,,,,,,2.03,1.78,0.98*0E
$GPRMC,213642.000,A,4735.5739,N,12222.9105,W,0.17,170.63,240716,,,A*7E
$GPVTG,170.63,T,,M,0.17,N,0.32,K,A*39
$GPGGA,213643.000,4735.5738,N,12222.9105,W,1,05,1.78,-10.5,M,-17.4,M,,*42
$GPGSA,A,3,12,25,31,02,06,,,,,,,,2.03,1.78,0.98*0E
$GPRMC,213643.000,A,4735.5738,N,12222.9105,W,0.20,94.76,240716,,,A*45
$GPVTG,94.76,T,,M,0.20,N,0.37,K,A*07
$GPGGA,213644.000,4735.5738,N,12222.9104,W,1,05,1.78,-10.5,M,-17.4,M,,*44
$GPGSA,A,3,12,25,31,02,06,,,,,,,,2.03,1.78,0.98*0E
$GPRMC,213644.000,A,4735.5738,N,12222.9104,W,0.28,103.30,240716,,,A*76
$GPVTG,103.30,T,,M,0.28,N,0.51,K,A*32
$GPGGA,213645.000,4735.5738,N,12222.9103,W,1,05,1.78,-10.5,M,-17.4,M,,*42
$GPGSA,A,3,12,25,31,02,06,,,,,,,,2.03,1.78,0.98*0E
$GPGSV,3,1,10,12,76,172,25,02,74,083,33,25,58,299,33,29,34,277,26*73
$GPGSV,3,2,10,48,34,194,,06,32,052,31,05,21,149,21,19,13,082,*75
$GPGSV,3,3,10,31,12,326,20,24,09,200,*71
$GPRMC,213645.000,A,4735.5738,N,12222.9103,W,0.29,132.64,240716,,,A*72
$GPVTG,132.64,T,,M,0.29,N,0.53,K,A*32
$GPGGA,213646.000,4735.5737,N,12222.9102,W,1,05,1.78,-10.5,M,-17.4,M,,*4F
$GPGSA,A,3,12,25,31,02,06,,,,,,,,2.03,1.78,0.98*0E
$GPRMC,213646.000,A,4735.5737,N,12222.9102,W,0.37,122.18,240716,,,A*7A
$GPVTG,122.18,T,,M,0.37,N,0.69,K,A*3E
$GPGGA,213647.000,4735.5737,N,12222.9101,W,1,05,1.78,-10.5,M,-17.4,M,,*4D
$GPGSA,A,3,12,25,31,02,06,,,,,,,,2.03,1.78,0.98*0E
$GPRMC,213647.000,A,4735.5737,N,12222.9101,W,0.31,121.72,240716,,,A*71
$GPVTG,121.72,T,,M,0.31,N,0.58,K,A*35
$GPGGA,213648.000,4735.5736,N,12222.9100,W,1,05,1.78,-10.5,M,-17.4,M,,*42
$GPGSA,A,3,12,25,31,02,06,,,,,,,,2.03,1.78,0.98*0E
$GPRMC,213648.000,A,4735.5736,N,12222.9100,W,0.36,94.10,240716,,,A*42
$GPVTG,94.10,T,,M,0.36,N,0.66,K,A*04
$GPGGA,213649.000,4735.5736,N,12222.9098,W,1,05,1.78,-10.5,M,-17.4,M,,*43
$GPGSA,A,3,12,25,31,02,06,,,,,,,,2.03,1.78,0.98*0E
$GPRMC,213649.000,A,4735.5736,N,12222.9098,W,0.33,99.15,240716,,,A*4E
$GPVTG,99.15,T,,M,0.33,N,0.61,K,A*0E
$GPGGA,213650.000,4735.5736,N,12222.9097,W,1,05,1.78,-10.5,M,-17.4,M,,*44
