$GPGGA,223109.000,4735.5316,N,12222.7164,W,2,08,0.95,-16.3,M,-17.4,M,0000,0000*45
$GPGSA,A,3,12,31,25,06,02,05,29,20,,,,,1.24,0.95,0.80*0F
$GPRMC,223109.000,A,4735.5316,N,12222.7164,W,0.81,138.54,240716,,,D*77
$GPVTG,138.54,T,,M,0.81,N,1.49,K,D*36
$GPGGA,223110.000,4735.5312,N,12222.7164,W,2,07,1.24,-16.4,M,-17.4,M,0000,0000*4A
$GPGSA,A,3,12,31,25,02,05,29,20,,,,,,1.51,1.24,0.87*07
$GPGSV,3,1,11,25,70,242,35,29,56,296,35,02,52,060,29,12,49,167,22*7C
$GPGSV,3,2,11,05,42,133,21,48,34,194,32,31,20,305,26,20,15,181,21*70
$GPGSV,3,3,11,06,10,055,,21,08,235,,09,02,033,15*4E
$GPRMC,223110.000,A,4735.5312,N,12222.7164,W,0.91,145.76,240716,,,D*70
$GPVTG,145.76,T,,M,0.91,N,1.68,K,D*3E
$GPGGA,223111.000,4735.5309,N,12222.7162,W,2,07,1.24,-16.4,M,-17.4,M,0000,0000*47
$GPGSA,A,3,12,31,25,02,05,29,20,,,,,,1.51,1.24,0.87*07
$GPRMC,223111.000,A,4735.5309,N,12222.7162,W,0.99,141.43,240716,,,D*77
$GPVTG,141.43,T,,M,0.99,N,1.83,K,D*31
$GPGGA,223112.000,4735.5307,N,12222.7161,W,2,08,0.95,-16.5,M,-17.4,M,0000,0000*4C
$GPGSA,A,3,12,31,25,06,02,05,29,20,,,,,1.24,0.95,0.80*0F
$GPRMC,223112.000,A,4735.5307,N,12222.7161,W,0.75,142.84,240716,,,D*73
$GPVTG,142.84,T,,M,0.75,N,1.39,K,D*3A
$GPGGA,223113.000,4735.5305,N,12222.7160,W,2,07,1.19,-16.5,M,-17.4,M,0000,0000*44
$GPGSA,A,3,12,25,06,02,05,29,20,,,,,,1.46,1.19,0.86*0A
$GPRMC,223113.000,A,4735.5305,N,12222.7160,W,0.71,134.89,240716,,,D*79
$GPVTG,134.89,T,,M,0.71,N,1.31,K,D*3A
$GPGGA,223114.000,4735.5304,N,12222.7158,W,2,07,1.19,-16.6,M,-17.4,M,0000,0000*4A
$GPGSA,A,3,12,25,06,02,05,29,20,,,,,,1.46,1.19,0.85*09
$GPRMC,223114.000,A,4735.5304,N,12222.7158,W,0.66,118.53,240716,,,D*7B
$GPVTG,118.53,T,,M,0.66,N,1.21,K,D*34
$GPGGA,223115.000,4735.5302,N,12222.7158,W,2,07,1.19,-16.6,M,-17.4,M,0000,0000*4D
$GPGSA,A,3,12,25,06,02,05,29,20,,,,,,1.46,1.19,0.86*0A
$GPGSV,3,1,11,25,70,242,35,29,56,296,34,02,52,060,30,12,49,167,24*73
$GPGSV,3,2,11,05,42,133,21,48,34,194,31,31,20,305,,20,15,181,26*70
$GPGSV,3,3,11,06,10,055,16,21,08,235,,09,02,033,*4D
$GPRMC,223115.000,A,4735.5302,N,12222.7158,W,0.55,123.03,240716,,,D*71
$GPVTG,123.03,T,,M,0.55,N,1.02,K,D*38
$GPGGA,223116.000,4735.5300,N,12222.7157,W,2,08,0.95,-16.6,M,-17.4,M,0000,0000*49
$GPGSA,A,3,12,31,25,06,02,05,29,20,,,,,1.24,0.95,0.80*0F
$GPRMC,223116.000,A,4735.5300,N,12222.7157,W,0.63,117.89,240716,,,D*7F
$GPVTG,117.89,T,,M,0.63,N,1.16,K,D*3D
$GPGGA,223117.000,4735.5298,N,12222.7156,W,2,07,1.19,-16.7,M,-17.4,M,0000,0000*42
$GPGSA,A,3,12,25,06,02,05,29,20,,,,,,1.46,1.19,0.86*0A
$GPRMC,223117.000,A,4735.5298,N,12222.7156,W,0.61,125.53,240716,,,D*7B
$GPVTG,125.53,T,,M,0.61,N,1.13,K,D*3C
$GPGGA,223118.000,4735.5297,N,12222.7158,W,2,08,0.95,-16.7,M,-17.4,M,0000,0000*46
$GPGSA,A,3,12,31,25,06,02,05,29,20,,,,,1.24,0.95,0.80*0F
$GPRMC,223118.000,A,4735.5297,N,12222.7158,W,0.40,134.19,240716,,,D*78
$GPVTG,134.19,T,,M,0.40,N,0.74,K,D*31
$GPGGA,223119.000,4735.5294,N,12222.7158,W,2,08,0.95,-16.7,M,-17.4,M,0000,0000*44
$GPGSA,A,3,12,31,25,06,02,05,29,20,,,,,1.24,0.95,0.80*0F
$GPRMC,223119.000,A,4735.5294,N,12222.7158,W,0.49,148.14,240716,,,D*75
$GPVTG,148.14,T,,M,0.49,N,0.91,K,D*35
$GPGGA,223120.000,4735.5292,N,12222.7157,W,2,07,1.19,-16.7,M,-17.4,M,0000,0000*4D
$GPGSA,A,3,12,25,06,02,05,29,20,,,,,,1.46,1.19,0.86*0A
$GPGSV,3,1,11,25,70,242,35,29,56,296,34,02,52,060,32,12,49,167,26*73
$GPGSV,3,2,11,05,43,132,18,48,34,194,32,31,20,305,,20,15,181,27*78
$GPGSV,3,3,11,06,10,055,17,21,08,235,,09,02,033,*4C
$GPRMC,223120.000,A,4735.5292,N,12222.7157,W,0.58,152.54,240716,,,D*79
$GPVTG,152.54,T,,M,0.58,N,1.08,K,D*3B
$GPGGA,223121.000,4735.5290,N,12222.7158,W,2,07,1.19,-16.7,M,-17.4,M,0000,0000*41
$GPGSA,A,3,12,25,06,02,05,29,20,,,,,,1.46,1.19,0.86*0A
$GPRMC,223121.000,A,4735.5290,N,12222.7158,W,0.61,169.63,240716,,,D*73
$GPVTG,169.63,T,,M,0.61,N,1.13,K,D*37
$GPGGA,223122.000,4735.5288,N,12222.7159,W,2,07,1.19,-16.7,M,-17.4,M,0000,0000*4A
$GPGSA,A,3,12,25,06,02,05,29,20,,,,,,1.46,1.19,0.86*0A
$GPRMC,223122.000,A,4735.5288,N,12222.7159,W,0.71,171.69,240716,,,D*7A
$GPVTG,171.69,T,,M,0.71,N,1.32,K,D*36
$GPGGA,223123.000,4735.5287,N,12222.7158,W,2,07,1.19,-16.7,M,-17.4,M,0000,0000*45
$GPGSA,A,3,12,25,06,02,05,29,20,,,,,,1.46,1.19,0.86*0A
$GPRMC,223123.000,A,4735.5287,N,12222.7158,W,0.65,173.44,240716,,,D*7D
$GPVTG,173.44,T,,M,0.65,N,1.20,K,D*3D
$GPGGA,223124.000,4735.5289,N,12222.7156,W,2,07,1.19,-16.8,M,-17.4,M,0000,0000*4D
$GPGSA,A,3,12,25,06,02,05,29,20,,,,,,1.46,1.19,0.86*0A
$GPRMC,223124.000,A,4735.5289,N,12222.7156,W,0.41,151.13,240716,,,D*7E
$GPVTG,151.13,T,,M,0.41,N,0.76,K,D*3B
$GPGGA,223125.000,4735.5288,N,12222.7155,W,2,07,1.19,-16.8,M,-17.4,M,0000,0000*4E
$GPGSA,A,3,12,25,06,02,05,29,20,,,,,,1.46,1.19,0.86*0A
$GPGSV,3,1,11,25,70,242,35,29,56,296,34,02,52,060,31,12,49,167,27*71
$GPGSV,3,2,11,05,43,132,20,48,34,194,31,31,20,305,,20,15,181,25*72
$GPGSV,3,3,11,06,10,055,16,21,08,235,,09,02,033,*4D
$GPRMC,223125.000,A,4735.5288,N,12222.7155,W,0.35,154.39,240716,,,D*73
$GPVTG,154.39,T,,M,0.35,N,0.64,K,D*36
$GPGGA,223126.000,4735.5288,N,12222.7156,W,2,06,1.41,-16.8,M,-17.4,M,0000,0000*42
$GPGSA,A,3,12,25,02,05,29,20,,,,,,,1.70,1.41,0.94*07
$GPRMC,223126.000,A,4735.5288,N,12222.7156,W,0.33,161.20,240716,,,D*7B
$GPVTG,161.20,T,,M,0.33,N,0.61,K,D*3B
$GPGGA,223127.000,4735.5289,N,12222.7157,W,2,08,0.95,-16.8,M,-17.4,M,0000,0000*45
$GPGSA,A,3,12,31,25,06,02,05,29,20,,,,,1.24,0.95,0.80*0F
$GPRMC,223127.000,A,4735.5289,N,12222.7157,W,0.29,171.53,240716,,,D*74
$GPVTG,171.53,T,,M,0.29,N,0.54,K,D*33
$GPGGA,223128.000,4735.5288,N,12222.7157,W,2,08,0.95,-16.8,M,-17.4,M,0000,0000*4B
$GPGSA,A,3,12,31,25,06,02,05,29,20,,,,,1.24,0.95,0.80*0F
$GPRMC,223128.000,A,4735.5288,N,12222.7157,W,0.31,127.12,240716,,,D*75
$GPVTG,127.12,T,,M,0.31,N,0.58,K,D*30
$GPGGA,223129.000,4735.5287,N,12222.7155,W,2,08,0.95,-16.8,M,-17.4,M,0000,0000*47
$GPGSA,A,3,12,31,25,06,02,05,29,20,,,,,1.24,0.95,0.80*0F
$GPRMC,223129.000,A,4735.5287,N,12222.7155,W,0.39,104.75,240716,,,D*71
$GPVTG,104.75,T,,M,0.39,N,0.73,K,D*31
$GPGGA,223130.000,4735.5288,N,12222.7152,W,2,07,1.19,-16.7,M,-17.4,M,0000,0000*42
$GPGSA,A,3,12,25,06,02,05,29,20,,,,,,1.46,1.19,0.86*0A
$GPGSV,3,1,11,25,70,242,35,29,56,296,34,02,52,060,29,12,48,167,24*7A
$GPGSV,3,2,11,05,43,132,21,48,34,194,31,31,20,305,,20,15,181,27*71
$GPGSV,3,3,11,06,10,055,16,21,08,235,,09,02,033,*4D
$GPRMC,223130.000,A,4735.5288,N,12222.7152,W,0.53,96.47,240716,,,D*46
$GPVTG,96.47,T,,M,0.53,N,0.99,K,D*02
$GPGGA,223131.000,4735.5288,N,12222.7149,W,2,07,1.19,-16.8,M,-17.4,M,0000,0000*46
$GPGSA,A,3,12,25,06,02,05,29,20,,,,,,1.46,1.19,0.86*0A
$GPRMC,223131.000,A,4735.5288,N,12222.7149,W,0.54,100.12,240716,,,D*74
$GPVTG,100.12,T,,M,0.54,N,1.00,K,D*3A
$GPGGA,223132.000,4735.5289,N,12222.7148,W,2,07,1.19,-16.8,M,-17.4,M,0000,0000*45
$GPGSA,A,3,12,25,06,02,05,29,20,,,,,,1.46,1.19,0.86*0A
$GPRMC,223132.000,A,4735.5289,N,12222.7148,W,0.37,86.33,240716,,,D*4E
$GPVTG,86.33,T,,M,0.37,N,0.69,K,D*0D
$GPGGA,223133.000,4735.5289,N,12222.7146,W,2,07,1.19,-16.8,M,-17.4,M,0000,0000*4A
$GPGSA,A,3,12,25,06,02,05,29,20,,,,,,1.46,1.19,0.86*0A
$GPRMC,223133.000,A,4735.5289,N,12222.7146,W,0.37,98.90,240716,,,D*47
$GPVTG,98.90,T,,M,0.37,N,0.68,K,D*0A
$GPGGA,223134.000,4735.5289,N,12222.7144,W,2,08,0.95,-16.8,M,-17.4,M,0000,0000*45
$GPGSA,A,3,12,31,25,06,02,05,29,20,,,,,1.24,0.95,0.80*0F
$GPRMC,223134.000,A,4735.5289,N,12222.7144,W,0.43,125.61,240716,,,D*78
$GPVTG,125.61,T,,M,0.43,N,0.79,K,D*30
$GPGGA,223135.000,4735.5288,N,12222.7143,W,2,08,0.95,-16.8,M,-17.4,M,0000,0000*42
$GPGSA,A,3,12,31,25,06,02,05,29,20,,,,,1.24,0.95,0.80*0F
$GPGSV,3,1,11,25,70,242,34,29,56,296,34,02,52,060,28,12,48,167,25*7B
$GPGSV,3,2,11,05,43,132,33,48,34,194,28,31,20,305,28,20,16,181,23*77
$GPGSV,3,3,11,06,10,055,17,21,08,235,,09,02,033,*4C
$GPRMC,223135.000,A,4735.5288,N,12222.7143,W,0.33,123.80,240716,,,D*71
$GPVTG,123.80,T,,M,0.33,N,0.61,K,D*37
$GPGGA,223136.000,4735.5287,N,12222.7142,W,2,08,0.95,-16.8,M,-17.4,M,0000,0000*4F
$GPGSA,A,3,12,31,25,06,02,05,29,20,,,,,1.24,0.95,0.80*0F
$GPRMC,223136.000,A,4735.5287,N,12222.7142,W,0.25,121.00,240716,,,D*71
$GPVTG,121.00,T,,M,0.25,N,0.46,K,D*3F
$GPGGA,223137.000,4735.5287,N,12222.7141,W,2,08,0.95,-16.8,M,-17.4,M,0000,0000*4D
$GPGSA,A,3,12,31,25,06,02,05,29,20,,,,,1.24,0.95,0.80*0F
$GPRMC,223137.000,A,4735.5287,N,12222.7141,W,0.40,135.37,240716,,,D*71
$GPVTG,135.37,T,,M,0.40,N,0.75,K,D*3D
$GPGGA,223138.000,4735.5286,N,12222.7140,W,2,08,0.95,-16.8,M,-17.4,M,0000,0000*42
$GPGSA,A,3,12,31,25,06,02,05,29,20,,,,,1.24,0.95,0.80*0F
$GPRMC,223138.000,A,4735.5286,N,12222.7140,W,0.40,121.42,240716,,,D*79
$GPVTG,121.42,T,,M,0.40,N,0.74,K,D*3B
$GPGGA,223139.000,4735.5286,N,12222.7138,W,2,08,0.95,-16.8,M,-17.4,M,0000,0000*4C
$GPGSA,A,3,12,31,25,06,02,05,29,20,,,,,1.24,0.95,0.80*0F
$GPRMC,223139.000,A,4735.5286,N,12222.7138,W,0.19,114.53,240716,,,D*7D
$GPVTG,114.53,T,,M,0.19,N,0.36,K,D*37
$GPGGA,223140.000,4735.5286,N,12222.7138,W,2,08,0.95,-16.8,M,-17.4,M,0000,0000*42
$GPGSA,A,3,12,31,25,06,02,05,29,20,,,,,1.24,0.95,0.80*0F
$GPGSV,3,1,11,25,70,241,34,29,56,296,33,02,52,060,21,12,48,167,24*77
$GPGSV,3,2,11,05,43,132,32,48,34,194,28,31,20,305,28,20,16,181,22*77
$GPGSV,3,3,11,06,10,055,18,21,08,236,,09,02,033,*40
$GPRMC,223140.000,A,4735.5286,N,12222.7138,W,0.31,141.87,240716,,,D*70
$GPVTG,141.87,T,,M,0.31,N,0.57,K,D*33
$GPGGA,223141.000,4735.5285,N,12222.7137,W,2,08,0.95,-16.8,M,-17.4,M,0000,0000*4F
$GPGSA,A,3,12,31,25,06,02,05,29,20,,,,,1.24,0.95,0.80*0F
$GPRMC,223141.000,A,4735.5285,N,12222.7137,W,0.37,138.68,240716,,,D*74
$GPVTG,138.68,T,,M,0.37,N,0.68,K,D*36
$GPGGA,223142.000,4735.5284,N,12222.7136,W,2,08,0.95,-16.8,M,-17.4,M,0000,0000*4C
$GPGSA,A,3,12,31,25,06,02,05,29,20,,,,,1.24,0.95,0.80*0F
$GPRMC,223142.000,A,4735.5284,N,12222.7136,W,0.43,130.74,240716,,,D*71
$GPVTG,130.74,T,,M,0.43,N,0.80,K,D*36
$GPGGA,223143.000,4735.5283,N,12222.7135,W,2,08,0.95,-16.8,M,-17.4,M,0000,0000*49
$GPGSA,A,3,12,31,25,06,02,05,29,20,,,,,1.24,0.95,0.80*0F
$GPRMC,223143.000,A,4735.5283,N,12222.7135,W,0.40,109.11,240716,,,D*7E
$GPVTG,109.11,T,,M,0.40,N,0.74,K,D*37
$GPGGA,223144.000,4735.5283,N,12222.7133,W,2,08,0.95,-16.8,M,-17.4,M,0000,0000*48
$GPGSA,A,3,12,31,25,06,02,05,29,20,,,,,1.24,0.95,0.80*0F
$GPRMC,223144.000,A,4735.5283,N,12222.7133,W,0.40,117.75,240716,,,D*72
$GPVTG,117.75,T,,M,0.40,N,0.74,K,D*3A
$GPGGA,223145.000,4735.5283,N,12222.7132,W,2,08,0.95,-16.8,M,-17.4,M,0000,0000*48
$GPGSA,A,3,12,31,25,06,02,05,29,20,,,,,1.24,0.95,0.80*0F
$GPGSV,3,1,11,25,70,241,34,29,56,296,36,02,52,060,25,12,48,167,23*71
$GPGSV,3,2,11,05,43,132,33,48,34,194,27,31,20,305,27,20,16,181,22*76
$GPGSV,3,3,11,06,10,055,18,21,08,236,,09,02,033,*40
$GPRMC,223145.000,A,4735.5283,N,12222.7132,W,0.46,116.09,240716,,,D*7E
$GPVTG,116.09,T,,M,0.46,N,0.86,K,D*3B
$GPGGA,223146.000,4735.5282,N,12222.7130,W,2,08,0.95,-16.8,M,-17.4,M,0000,0000*48
$GPGSA,A,3,12,31,25,06,02,05,29,20,,,,,1.24,0.95,0.80*0F
$GPRMC,223146.000,A,4735.5282,N,12222.7130,W,0.43,114.90,240716,,,D*79
$GPVTG,114.90,T,,M,0.43,N,0.79,K,D*3C
$GPGGA,223147.000,4735.5281,N,12222.7128,W,2,08,0.95,-16.8,M,-17.4,M,0000,0000*43
$GPGSA,A,3,12,31,25,06,02,05,29,20,,,,,1.24,0.95,0.80*0F
$GPRMC,223147.000,A,4735.5281,N,12222.7128,W,0.61,118.07,240716,,,D*70
$GPVTG,118.07,T,,M,0.61,N,1.13,K,D*33
$GPGGA,223148.000,4735.5280,N,12222.7129,W,2,08,0.95,-16.8,M,-17.4,M,0000,0000*4C
$GPGSA,A,3,12,31,25,06,02,05,29,20,,,,,1.24,0.95,0.80*0F
$GPRMC,223148.000,A,4735.5280,N,12222.7129,W,0.38,143.16,240716,,,D*7D
$GPVTG,143.16,T,,M,0.38,N,0.70,K,D*35
$GPGGA,223149.000,4735.5281,N,12222.7128,W,2,08,0.95,-16.8,M,-17.4,M,0000,0000*4D
$GPGSA,A,3,12,31,25,06,02,05,29,20,,,,,1.24,0.95,0.80*0F
$GPRMC,223149.000,A,4735.5281,N,12222.7128,W,0.28,139.86,240716,,,D*79
$GPVTG,139.86,T,,M,0.28,N,0.51,K,D*33
$GPGGA,223150.000,4735.5281,N,12222.7128,W,2,08,0.95,-16.8,M,-17.4,M,0000,0000*45
$GPGSA,A,3,12,31,25,06,02,05,29,20,,,,,1.24,0.95,0.80*0F
$GPGSV,3,1,11,25,70,241,35,29,56,296,35,02,52,060,25,12,48,167,22*72
$GPGSV,3,2,11,05,43,132,32,48,34,194,28,31,20,305,28,20,16,181,22*77
$GPGSV,3,3,11,06,10,055,17,21,08,236,,09,02,033,*4F
$GPRMC,223150.000,A,4735.5281,N,12222.7128,W,0.37,146.63,240716,,,D*7C
$GPVTG,146.63,T,,M,0.37,N,0.68,K,D*34
$GPGGA,223151.000,4735.5281,N,12222.7127,W,2,08,0.95,-16.8,M,-17.4,M,0000,0000*4B
$GPGSA,A,3,12,31,25,06,02,05,29,20,,,,,1.24,0.95,0.80*0F
$GPRMC,223151.000,A,4735.5281,N,12222.7127,W,0.32,156.10,240716,,,D*72
$GPVTG,156.10,T,,M,0.32,N,0.60,K,D*3C
$GPGGA,223152.000,4735.5280,N,12222.7127,W,2,08,0.95,-16.8,M,-17.4,M,0000,0000*49
$GPGSA,A,3,12,31,25,06,02,05,29,20,,,,,1.24,0.95,0.80*0F
$GPRMC,223152.000,A,4735.5280,N,12222.7127,W,0.20,154.62,240716,,,D*74
$GPVTG,154.62,T,,M,0.20,N,0.37,K,D*3A
$GPGGA,223153.000,4735.5279,N,12222.7126,W,2,08,0.95,-16.8,M,-17.4,M,0000,0000*4F
$GPGSA,A,3,12,31,25,06,02,05,29,20,,,,,1.24,0.95,0.80*0F
$GPRMC,223153.000,A,4735.5279,N,12222.7126,W,0.35,146.82,240716,,,D*7B
$GPVTG,146.82,T,,M,0.35,N,0.64,K,D*35
$GPGGA,223154.000,4735.5279,N,12222.7125,W,2,08,0.95,-16.8,M,-17.4,M,0000,0000*4B
$GPGSA,A,3,12,31,25,06,02,05,29,20,,,,,1.24,0.95,0.80*0F
$GPRMC,223154.000,A,4735.5279,N,12222.7125,W,0.25,101.48,240716,,,D*7B
$GPVTG,101.48,T,,M,0.25,N,0.46,K,D*31
$GPGGA,223155.000,4735.5279,N,12222.7125,W,2,08,0.95,-16.8,M,-17.4,M,0000,0000*4A
$GPGSA,A,3,12,31,25,06,02,05,29,20,,,,,1.24,0.95,0.80*0F
$GPGSV,3,1,11,25,70,241,34,29,56,296,33,02,52,060,20,12,48,167,23*71
$GPGSV,3,2,11,05,43,132,32,48,34,194,29,31,20,305,30,20,16,181,25*78
$GPGSV,3,3,11,06,10,055,17,21,08,236,,09,02,033,*4F
$GPRMC,223155.000,A,4735.5279,N,12222.7125,W,0.36,135.18,240716,,,D*7A
$GPVTG,135.18,T,,M,0.36,N,0.66,K,D*33
$GPGGA,223156.000,4735.5278,N,12222.7124,W,2,07,1.23,-16.8,M,-17.4,M,0000,0000*4A
$GPGSA,A,3,12,31,25,02,05,29,20,,,,,,1.51,1.23,0.87*00
$GPRMC,223156.000,A,4735.5278,N,12222.7124,W,0.30,149.81,240716,,,D*74
$GPVTG,149.81,T,,M,0.30,N,0.56,K,D*3D
$GPGGA,223157.000,4735.5277,N,12222.7123,W,2,07,1.23,-16.8,M,-17.4,M,0000,0000*43
$GPGSA,A,3,12,31,25,02,05,29,20,,,,,,1.51,1.23,0.87*00
$GPRMC,223157.000,A,4735.5277,N,12222.7123,W,0.36,145.00,240716,,,D*7E
$GPVTG,145.00,T,,M,0.36,N,0.67,K,D*3C
$GPGGA,223158.000,4735.5276,N,12222.7122,W,2,08,0.95,-16.8,M,-17.4,M,0000,0000*4F
$GPGSA,A,3,12,31,25,06,02,05,29,20,,,,,1.24,0.95,0.80*0F
$GPRMC,223158.000,A,4735.5276,N,12222.7122,W,0.65,164.20,240716,,,D*76
$GPVTG,164.20,T,,M,0.65,N,1.21,K,D*38
$GPGGA,223159.000,4735.5273,N,12222.7121,W,2,08,0.95,-16.8,M,-17.4,M,0000,0000*48
$GPGSA,A,3,12,31,25,06,02,05,29,20,,,,,1.24,0.95,0.80*0F
$GPRMC,223159.000,A,4735.5273,N,12222.7121,W,0.80,156.59,240716,,,D*75
$GPVTG,156.59,T,,M,0.80,N,1.48,K,D*33
$GPGGA,223200.000,4735.5272,N,12222.7121,W,2,08,0.95,-16.7,M,-17.4,M,0000,0000*49
$GPGSA,A,3,12,31,25,06,02,05,29,20,,,,,1.24,0.95,0.80*0F
$GPGSV,3,1,11,25,70,241,35,29,56,296,35,02,52,060,22,12,48,167,23*74
$GPGSV,3,2,11,05,43,132,34,48,34,194,28,31,20,305,28,20,16,181,24*77
$GPGSV,3,3,11,06,10,055,18,21,08,236,,09,02,033,*40
$GPRMC,223200.000,A,4735.5272,N,12222.7121,W,0.67,159.85,240716,,,D*7C
$GPVTG,159.85,T,,M,0.67,N,1.25,K,D*3F
$GPGGA,223201.000,4735.5269,N,12222.7124,W,2,08,0.95,-16.7,M,-17.4,M,0000,0000*47
$GPGSA,A,3,12,31,25,06,02,05,29,20,,,,,1.24,0.95,0.80*0F
$GPRMC,223201.000,A,4735.5269,N,12222.7124,W,0.61,171.62,240716,,,D*77
$GPVTG,171.62,T,,M,0.61,N,1.13,K,D*3F
$GPGGA,223202.000,4735.5266,N,12222.7126,W,2,08,0.95,-16.8,M,-17.4,M,0000,0000*46
$GPGSA,A,3,12,31,25,06,02,05,29,20,,,,,1.24,0.95,0.80*0F
$GPRMC,223202.000,A,4735.5266,N,12222.7126,W,0.81,183.54,240716,,,D*7F
$GPVTG,183.54,T,,M,0.81,N,1.50,K,D*3E
$GPGGA,223203.000,4735.5265,N,12222.7125,W,2,08,0.95,-16.8,M,-17.4,M,0000,0000*47
$GPGSA,A,3,12,31,25,06,02,05,29,20,,,,,1.24,0.95,0.80*0F
$GPRMC,223203.000,A,4735.5265,N,12222.7125,W,0.74,173.19,240716,,,D*72
$GPVTG,173.19,T,,M,0.74,N,1.37,K,D*33
$GPGGA,223204.000,4735.5264,N,12222.7126,W,2,08,0.95,-16.9,M,-17.4,M,0000,0000*43
$GPGSA,A,3,12,31,25,06,02,05,29,20,,,,,1.24,0.95,0.80*0F
$GPRMC,223204.000,A,4735.5264,N,12222.7126,W,0.74,171.79,240716,,,D*73
$GPVTG,171.79,T,,M,0.74,N,1.36,K,D*36
$GPGGA,223205.000,4735.5265,N,12222.7125,W,2,08,0.95,-16.9,M,-17.4,M,0000,0000*40
$GPGSA,A,3,12,31,25,06,02,05,29,20,,,,,1.24,0.95,0.80*0F
$GPGSV,3,1,11,25,70,241,35,29,56,296,36,02,52,060,27,12,48,167,21*70
$GPGSV,3,2,11,05,43,132,32,48,34,194,28,31,20,305,27,20,16,181,22*78
$GPGSV,3,3,11,06,10,055,17,21,08,236,,09,02,033,*4F
$GPRMC,223205.000,A,4735.5265,N,12222.7125,W,0.46,168.95,240716,,,D*7B
$GPVTG,168.95,T,,M,0.46,N,0.84,K,D*35
$GPGGA,223206.000,4735.5264,N,12222.7123,W,2,08,0.95,-16.9,M,-17.4,M,0000,0000*44
$GPGSA,A,3,12,31,25,06,02,05,29,20,,,,,1.24,0.95,0.80*0F
$GPRMC,223206.000,A,4735.5264,N,12222.7123,W,0.50,156.25,240716,,,D*7E
$GPVTG,156.25,T,,M,0.50,N,0.92,K,D*33
$GPGGA,223207.000,4735.5264,N,12222.7124,W,2,08,0.95,-16.9,M,-17.4,M,0000,0000*42
$GPGSA,A,3,12,31,25,06,02,05,29,20,,,,,1.24,0.95,0.80*0F
$GPRMC,223207.000,A,4735.5264,N,12222.7124,W,0.40,172.60,240716,,,D*7E
$GPVTG,172.60,T,,M,0.40,N,0.75,K,D*3C
$GPGGA,223208.000,4735.5263,N,12222.7124,W,2,08,0.95,-16.9,M,-17.4,M,0000,0000*4A
$GPGSA,A,3,12,31,25,06,02,05,29,20,,,,,1.24,0.95,0.80*0F
$GPRMC,223208.000,A,4735.5263,N,12222.7124,W,0.45,182.16,240716,,,D*7D
$GPVTG,182.16,T,,M,0.45,N,0.83,K,D*3E
$GPGGA,223209.000,4735.5262,N,12222.7124,W,2,08,0.95,-16.9,M,-17.4,M,0000,0000*4A
$GPGSA,A,3,12,31,25,06,02,05,29,20,,,,,1.24,0.95,0.80*0F
$GPRMC,223209.000,A,4735.5262,N,12222.7124,W,0.55,151.36,240716,,,D*70
$GPVTG,151.36,T,,M,0.55,N,1.01,K,D*38
$GPGGA,223210.000,4735.5260,N,12222.7123,W,2,08,0.95,-16.9,M,-17.4,M,0000,0000*47
$GPGSA,A,3,12,31,25,06,02,05,29,20,,,,,1.24,0.95,0.80*0F
$GPGSV,3,1,11,25,70,241,35,29,56,296,35,02,52,060,29,12,48,167,22*7E
$GPGSV,3,2,11,05,43,132,19,48,34,194,29,31,20,305,26,20,16,181,22*71
$GPGSV,3,3,11,06,10,055,17,21,08,236,,09,02,033,*4F
$GPRMC,223210.000,A,4735.5260,N,12222.7123,W,0.50,165.97,240716,,,D*74
$GPVTG,165.97,T,,M,0.50,N,0.93,K,D*3B
$GPGGA,223211.000,4735.5259,N,12222.7123,W,2,07,1.23,-16.9,M,-17.4,M,0000,0000*4F
$GPGSA,A,3,12,31,25,02,05,29,20,,,,,,1.51,1.23,0.87*00
$GPRMC,223211.000,A,4735.5259,N,12222.7123,W,0.41,159.21,240716,,,D*7D
$GPVTG,159.21,T,,M,0.41,N,0.76,K,D*32
$GPGGA,223212.000,4735.5258,N,12222.7122,W,2,08,0.95,-16.9,M,-17.4,M,0000,0000*4F
$GPGSA,A,3,12,31,25,06,02,05,29,20,,,,,1.24,0.95,0.80*0F
$GPRMC,223212.000,A,4735.5258,N,12222.7122,W,0.48,145.28,240716,,,D*73
$GPVTG,145.28,T,,M,0.48,N,0.89,K,D*3F
$GPGGA,223213.000,4735.5257,N,12222.7121,W,2,07,1.23,-16.9,M,-17.4,M,0000,0000*41
$GPGSA,A,3,12,31,25,02,05,29,20,,,,,,1.51,1.23,0.87*00
$GPRMC,223213.000,A,4735.5257,N,12222.7121,W,0.57,161.12,240716,,,D*7F
$GPVTG,161.12,T,,M,0.57,N,1.06,K,D*38
$GPGGA,223214.000,4735.5255,N,12222.7120,W,2,08,0.95,-16.9,M,-17.4,M,0000,0000*46
$GPGSA,A,3,12,31,25,06,02,05,29,20,,,,,1.24,0.95,0.80*0F
$GPRMC,223214.000,A,4735.5255,N,12222.7120,W,0.71,160.98,240716,,,D*7C
$GPVTG,160.98,T,,M,0.71,N,1.32,K,D*38
$GPGGA,223215.000,4735.5253,N,12222.7122,W,2,08,0.95,-16.9,M,-17.4,M,0000,0000*43
$GPGSA,A,3,12,31,25,06,02,05,29,20,,,,,1.24,0.95,0.80*0F
$GPGSV,3,1,11,25,70,241,36,29,56,296,34,02,52,060,30,12,48,167,23*75
$GPGSV,3,2,11,05,43,132,19,48,34,194,30,31,20,305,24,20,16,181,23*7A
$GPGSV,3,3,11,06,10,055,16,21,08,236,,09,02,033,*4E
$GPRMC,223215.000,A,4735.5253,N,12222.7122,W,0.65,169.47,240716,,,D*77
$GPVTG,169.47,T,,M,0.65,N,1.20,K,D*35
$GPGGA,223216.000,4735.5249,N,12222.7122,W,2,07,1.19,-17.0,M,-17.4,M,0000,0000*49
$GPGSA,A,3,12,25,06,02,05,29,20,,,,,,1.47,1.19,0.86*0B
$GPRMC,223216.000,A,4735.5249,N,12222.7122,W,0.71,168.73,240716,,,D*7C
$GPVTG,168.73,T,,M,0.71,N,1.32,K,D*35
$GPGGA,223217.000,4735.5248,N,12222.7122,W,2,07,1.19,-17.0,M,-17.4,M,0000,0000*49
$GPGSA,A,3,12,25,06,02,05,29,20,,,,,,1.47,1.19,0.86*0B
$GPRMC,223217.000,A,4735.5248,N,12222.7122,W,0.61,159.49,240716,,,D*76
$GPVTG,159.49,T,,M,0.61,N,1.14,K,D*3B
$GPGGA,223218.000,4735.5244,N,12222.7119,W,2,07,1.19,-17.0,M,-17.4,M,0000,0000*42
$GPGSA,A,3,12,25,06,02,05,29,20,,,,,,1.47,1.19,0.86*0B
$GPRMC,223218.000,A,4735.5244,N,12222.7119,W,0.80,144.85,240716,,,D*7E
$GPVTG,144.85,T,,M,0.80,N,1.48,K,D*31
$GPGGA,223219.000,4735.5243,N,12222.7118,W,2,07,1.19,-17.1,M,-17.4,M,0000,0000*44
$GPGSA,A,3,12,25,06,02,05,29,20,,,,,,1.47,1.19,0.86*0B
$GPRMC,223219.000,A,4735.5243,N,12222.7118,W,0.73,141.50,240716,,,D*78
$GPVTG,141.50,T,,M,0.73,N,1.35,K,D*3A
$GPGGA,223220.000,4735.5241,N,12222.7116,W,2,07,1.19,-17.1,M,-17.4,M,0000,0000*42
$GPGSA,A,3,12,25,06,02,05,29,20,,,,,,1.47,1.19,0.86*0B
$GPGSV,3,1,11,25,70,241,34,29,56,296,33,02,52,060,32,12,48,167,24*75
$GPGSV,3,2,11,05,43,132,21,48,34,194,30,31,20,305,,20,16,181,25*71
$GPGSV,3,3,11,06,10,055,16,21,08,236,,09,02,033,*4E
$GPRMC,223220.000,A,4735.5241,N,12222.7116,W,0.65,133.42,240716,,,D*7F
$GPVTG,133.42,T,,M,0.65,N,1.21,K,D*3E
$GPGGA,223221.000,4735.5238,N,12222.7116,W,2,08,0.95,-17.1,M,-17.4,M,0000,0000*47
$GPGSA,A,3,12,31,25,06,02,05,29,20,,,,,1.24,0.95,0.80*0F
$GPRMC,223221.000,A,4735.5238,N,12222.7116,W,0.69,147.98,240716,,,D*78
$GPVTG,147.98,T,,M,0.69,N,1.28,K,D*3F
$GPGGA,223222.000,4735.5238,N,12222.7117,W,2,07,1.19,-17.2,M,-17.4,M,0000,0000*4C
$GPGSA,A,3,12,25,06,02,05,29,20,,,,,,1.47,1.19,0.86*0B
$GPRMC,223222.000,A,4735.5238,N,12222.7117,W,0.44,147.96,240716,,,D*7B
$GPVTG,147.96,T,,M,0.44,N,0.82,K,D*3F
$GPGGA,223223.000,4735.5236,N,12222.7116,W,2,07,1.19,-17.2,M,-17.4,M,0000,0000*42
$GPGSA,A,3,12,25,06,02,05,29,20,,,,,,1.47,1.19,0.86*0B
$GPRMC,223223.000,A,4735.5236,N,12222.7116,W,0.49,143.66,240716,,,D*73
$GPVTG,143.66,T,,M,0.49,N,0.90,K,D*3A
$GPGGA,223224.000,4735.5234,N,12222.7116,W,2,07,1.19,-17.2,M,-17.4,M,0000,0000*47
$GPGSA,A,3,12,25,06,02,05,29,20,,,,,,1.47,1.19,0.86*0B
$GPRMC,223224.000,A,4735.5234,N,12222.7116,W,0.55,156.92,240716,,,D*74
$GPVTG,156.92,T,,M,0.55,N,1.02,K,D*32
$GPGGA,223225.000,4735.5233,N,12222.7116,W,2,07,1.19,-17.2,M,-17.4,M,0000,0000*41
$GPGSA,A,3,12,25,06,02,05,29,20,,,,,,1.47,1.19,0.86*0B
$GPGSV,3,1,11,25,70,241,33,29,56,296,32,02,52,060,34,12,48,167,26*77
$GPGSV,3,2,11,05,43,132,20,48,34,194,32,31,20,304,,20,16,181,26*70
$GPGSV,3,3,11,06,10,055,19,21,08,236,,09,02,033,*41
$GPRMC,223225.000,A,4735.5233,N,12222.7116,W,0.47,159.94,240716,,,D*78
$GPVTG,159.94,T,,M,0.47,N,0.88,K,D*3B
$GPGGA,223226.000,4735.5232,N,12222.7115,W,2,07,1.19,-17.2,M,-17.4,M,0000,0000*40
$GPGSA,A,3,12,25,06,02,05,29,20,,,,,,1.47,1.19,0.86*0B
$GPRMC,223226.000,A,4735.5232,N,12222.7115,W,0.46,169.10,240716,,,D*77
$GPVTG,169.10,T,,M,0.46,N,0.85,K,D*38
$GPGGA,223227.000,4735.5230,N,12222.7115,W,2,07,1.19,-17.2,M,-17.4,M,0000,0000*43
$GPGSA,A,3,12,25,06,02,05,29,20,,,,,,1.47,1.19,0.86*0B
$GPRMC,223227.000,A,4735.5230,N,12222.7115,W,0.59,158.67,240716,,,D*78
$GPVTG,158.67,T,,M,0.59,N,1.10,K,D*39
$GPGGA,223228.000,4735.5230,N,12222.7117,W,2,07,1.19,-17.3,M,-17.4,M,0000,0000*4F
$GPGSA,A,3,12,25,06,02,05,29,20,,,,,,1.47,1.19,0.86*0B
$GPRMC,223228.000,A,4735.5230,N,12222.7117,W,0.48,172.44,240716,,,D*7C
$GPVTG,172.44,T,,M,0.48,N,0.89,K,D*31
$GPGGA,223229.000,4735.5229,N,12222.7117,W,2,07,1.19,-17.3,M,-17.4,M,0000,0000*46
$GPGSA,A,3,12,25,06,02,05,29,20,,,,,,1.47,1.19,0.86*0B
$GPRMC,223229.000,A,4735.5229,N,12222.7117,W,0.44,171.79,240716,,,D*74
$GPVTG,171.79,T,,M,0.44,N,0.82,K,D*3B
$GPGGA,223230.000,4735.5229,N,12222.7117,W,2,07,1.19,-17.3,M,-17.4,M,0000,0000*4E
$GPGSA,A,3,12,25,06,02,05,29,20,,,,,,1.47,1.19,0.86*0B
$GPGSV,3,1,11,25,70,241,33,29,56,296,32,02,52,060,34,12,48,167,27*76
$GPGSV,3,2,11,05,43,132,19,48,34,194,33,31,20,304,,20,16,181,27*7A
$GPGSV,3,3,11,06,10,055,19,21,08,236,,09,02,033,*41
$GPRMC,223230.000,A,4735.5229,N,12222.7117,W,0.43,157.07,240716,,,D*76
$GPVTG,157.07,T,,M,0.43,N,0.80,K,D*33
$GPGGA,223231.000,4735.5229,N,12222.7116,W,2,07,1.19,-17.3,M,-17.4,M,0000,0000*4E
$GPGSA,A,3,12,25,06,02,05,29,20,,,,,,1.47,1.19,0.86*0B
$GPRMC,223231.000,A,4735.5229,N,12222.7116,W,0.38,141.92,240716,,,D*71
$GPVTG,141.92,T,,M,0.38,N,0.70,K,D*3B
$GPGGA,223232.000,4735.5228,N,12222.7115,W,2,08,0.95,-17.3,M,-17.4,M,0000,0000*45
$GPGSA,A,3,12,31,25,06,02,05,29,20,,,,,1.24,0.95,0.80*0F
$GPRMC,223232.000,A,4735.5228,N,12222.7115,W,0.28,161.72,240716,,,D*7D
$GPVTG,161.72,T,,M,0.28,N,0.53,K,D*37
$GPGGA,223233.000,4735.5227,N,12222.7115,W,2,08,0.95,-17.3,M,-17.4,M,0000,0000*4B
$GPGSA,A,3,12,31,25,06,02,05,29,20,,,,,1.24,0.95,0.80*0F
$GPRMC,223233.000,A,4735.5227,N,12222.7115,W,0.24,189.28,240716,,,D*76
$GPVTG,189.28,T,,M,0.24,N,0.44,K,D*34
$GPGGA,223234.000,4735.5227,N,12222.7115,W,2,08,0.95,-17.3,M,-17.4,M,0000,0000*4C
$GPGSA,A,3,12,31,25,06,02,05,29,20,,,,,1.24,0.95,0.80*0F
$GPRMC,223234.000,A,4735.5227,N,12222.7115,W,0.39,199.18,240716,,,D*7F
$GPVTG,199.18,T,,M,0.39,N,0.72,K,D*3F
$GPGGA,223235.000,4735.5226,N,12222.7116,W,2,07,1.19,-17.2,M,-17.4,M,0000,0000*44
$GPGSA,A,3,12,25,06,02,05,29,20,,,,,,1.47,1.19,0.86*0B
$GPGSV,3,1,11,25,70,241,31,29,56,296,31,02,52,060,33,12,48,167,25*72
$GPGSV,3,2,11,05,43,132,19,48,34,194,34,31,20,304,,20,16,181,27*7D
$GPGSV,3,3,11,06,10,055,19,21,08,236,,09,02,033,*41
$GPRMC,223235.000,A,4735.5226,N,12222.7116,W,0.37,206.52,240716,,,D*79
$GPVTG,206.52,T,,M,0.37,N,0.68,K,D*31
$GPGGA,223236.000,4735.5225,N,12222.7116,W,2,08,0.95,-17.2,M,-17.4,M,0000,0000*4E
$GPGSA,A,3,12,31,25,06,02,05,29,20,,,,,1.24,0.95,0.80*0F
$GPRMC,223236.000,A,4735.5225,N,12222.7116,W,0.34,216.84,240716,,,D*70
$GPVTG,216.84,T,,M,0.34,N,0.64,K,D*34
$GPGGA,223237.000,4735.5224,N,12222.7117,W,2,07,1.19,-17.2,M,-17.4,M,0000,0000*45
$GPGSA,A,3,12,25,06,02,05,29,20,,,,,,1.47,1.19,0.86*0B
$GPRMC,223237.000,A,4735.5224,N,12222.7117,W,0.40,193.69,240716,,,D*7F
$GPVTG,193.69,T,,M,0.40,N,0.75,K,D*3A
$GPGGA,223238.000,4735.5223,N,12222.7118,W,2,07,1.19,-17.2,M,-17.4,M,0000,0000*42
$GPGSA,A,3,12,25,06,02,05,29,20,,,,,,1.47,1.19,0.86*0B
$GPRMC,223238.000,A,4735.5223,N,12222.7118,W,0.42,179.56,240716,,,D*72
$GPVTG,179.56,T,,M,0.42,N,0.77,K,D*32
$GPGGA,223239.000,4735.5222,N,12222.7118,W,2,07,1.19,-17.2,M,-17.4,M,0000,0000*42
$GPGSA,A,3,12,25,06,02,05,29,20,,,,,,1.47,1.19,0.86*0B
$GPRMC,223239.000,A,4735.5222,N,12222.7118,W,0.49,144.90,240716,,,D*7D
$GPVTG,144.90,T,,M,0.49,N,0.90,K,D*34
$GPGGA,223240.000,4735.5221,N,12222.7116,W,2,07,1.19,-17.2,M,-17.4,M,0000,0000*41
$GPGSA,A,3,12,25,06,02,05,29,20,,,,,,1.47,1.19,0.86*0B
$GPGSV,3,1,11,25,70,241,32,29,56,296,29,02,52,060,35,12,48,167,28*73
$GPGSV,3,2,11,05,43,132,23,48,34,194,35,31,20,304,,20,16,181,26*74
$GPGSV,3,3,11,06,10,055,15,21,08,236,,09,02,033,*4D
$GPRMC,223240.000,A,4735.5221,N,12222.7116,W,0.47,138.91,240716,,,D*7A
$GPVTG,138.91,T,,M,0.47,N,0.87,K,D*36
$GPGGA,223241.000,4735.5220,N,12222.7115,W,2,08,0.95,-17.2,M,-17.4,M,0000,0000*48
$GPGSA,A,3,12,31,25,06,02,05,29,20,,,,,1.24,0.95,0.80*0F
$GPRMC,223241.000,A,4735.5220,N,12222.7115,W,0.52,141.68,240716,,,D*75
$GPVTG,141.68,T,,M,0.52,N,0.97,K,D*3B
$GPGGA,223242.000,4735.5219,N,12222.7114,W,2,08,0.95,-17.2,M,-17.4,M,0000,0000*40
$GPGSA,A,3,12,31,25,06,02,05,29,20,,,,,1.24,0.95,0.80*0F
$GPRMC,223242.000,A,4735.5219,N,12222.7114,W,0.54,162.49,240716,,,D*79
$GPVTG,162.49,T,,M,0.54,N,0.99,K,D*31
$GPGGA,223243.000,4735.5217,N,12222.7113,W,2,07,1.19,-17.2,M,-17.4,M,0000,0000*42
$GPGSA,A,3,12,25,06,02,05,29,20,,,,,,1.47,1.19,0.86*0B
$GPRMC,223243.000,A,4735.5217,N,12222.7113,W,0.64,171.35,240716,,,D*7B
$GPVTG,171.35,T,,M,0.64,N,1.19,K,D*32
$GPGGA,223244.000,4735.5216,N,12222.7116,W,2,07,1.19,-17.3,M,-17.4,M,0000,0000*40
$GPGSA,A,3,12,25,06,02,05,29,20,,,,,,1.47,1.19,0.86*0B
$GPRMC,223244.000,A,4735.5216,N,12222.7116,W,0.57,178.61,240716,,,D*70
$GPVTG,178.61,T,,M,0.57,N,1.05,K,D*37
$GPGGA,223245.000,4735.5216,N,12222.7117,W,2,07,1.19,-17.3,M,-17.4,M,0000,0000*40
$GPGSA,A,3,12,25,06,02,05,29,20,,,,,,1.47,1.19,0.86*0B
$GPGSV,3,1,11,25,70,241,31,29,56,296,27,02,52,060,36,12,48,167,32*76
$GPGSV,3,2,11,05,43,132,26,48,34,194,36,31,20,304,,20,16,180,24*71
$GPGSV,3,3,11,06,10,055,19,21,08,236,,09,02,033,*41
$GPRMC,223245.000,A,4735.5216,N,12222.7117,W,0.54,177.61,240716,,,D*7C
$GPVTG,177.61,T,,M,0.54,N,0.99,K,D*3F
$GPGGA,223246.000,4735.5216,N,12222.7118,W,2,07,1.19,-17.3,M,-17.4,M,0000,0000*4C
$GPGSA,A,3,12,25,06,02,05,29,20,,,,,,1.47,1.19,0.86*0B
$GPRMC,223246.000,A,4735.5216,N,12222.7118,W,0.43,175.57,240716,,,D*71
$GPVTG,175.57,T,,M,0.43,N,0.80,K,D*36
$GPGGA,223247.000,4735.5213,N,12222.7118,W,2,07,1.19,-17.4,M,-17.4,M,0000,0000*4F
$GPGSA,A,3,12,25,06,02,05,29,20,,,,,,1.47,1.19,0.86*0B
$GPRMC,223247.000,A,4735.5213,N,12222.7118,W,0.70,175.87,240716,,,D*78
$GPVTG,175.87,T,,M,0.70,N,1.30,K,D*31
$GPGGA,223248.000,4735.5212,N,12222.7118,W,2,07,1.19,-17.4,M,-17.4,M,0000,0000*41
$GPGSA,A,3,12,25,06,02,05,29,20,,,,,,1.47,1.19,0.86*0B
$GPRMC,223248.000,A,4735.5212,N,12222.7118,W,0.67,166.87,240716,,,D*72
$GPVTG,166.87,T,,M,0.67,N,1.24,K,D*30
$GPGGA,223249.000,4735.5211,N,12222.7120,W,2,07,1.19,-17.5,M,-17.4,M,0000,0000*49
$GPGSA,A,3,12,25,06,02,05,29,20,,,,,,1.47,1.19,0.86*0B
$GPRMC,223249.000,A,4735.5211,N,12222.7120,W,0.55,188.19,240716,,,D*7D
$GPVTG,188.19,T,,M,0.55,N,1.01,K,D*31
$GPGGA,223250.000,4735.5209,N,12222.7120,W,2,07,1.19,-17.5,M,-17.4,M,0000,0000*48
$GPGSA,A,3,12,25,06,02,05,29,20,,,,,,1.47,1.19,0.86*0B
$GPGSV,3,1,11,25,69,240,31,29,56,296,26,02,52,060,35,12,48,167,40*78
$GPGSV,3,2,11,05,43,132,27,48,34,194,34,31,20,304,,20,16,180,21*77
$GPGSV,3,3,11,06,10,055,17,21,09,236,,09,02,033,*4E
$GPRMC,223250.000,A,4735.5209,N,12222.7120,W,0.74,187.54,240716,,,D*79
$GPVTG,187.54,T,,M,0.74,N,1.36,K,D*30
$GPGGA,223251.000,4735.5208,N,12222.7122,W,2,07,1.19,-17.5,M,-17.4,M,0000,0000*4A
$GPGSA,A,3,12,25,06,02,05,29,20,,,,,,1.47,1.19,0.86*0B
$GPRMC,223251.000,A,4735.5208,N,12222.7122,W,0.66,196.90,240716,,,D*70
$GPVTG,196.90,T,,M,0.66,N,1.22,K,D*3E
$GPGGA,223252.000,4735.5206,N,12222.7121,W,2,07,1.19,-17.5,M,-17.4,M,0000,0000*44
$GPGSA,A,3,12,25,06,02,05,29,20,,,,,,1.47,1.19,0.86*0B
$GPRMC,223252.000,A,4735.5206,N,12222.7121,W,0.66,184.99,240716,,,D*74
$GPVTG,184.99,T,,M,0.66,N,1.23,K,D*35
$GPGGA,223253.000,4735.5204,N,12222.7124,W,2,07,1.19,-17.5,M,-17.4,M,0000,0000*42
$GPGSA,A,3,12,25,06,02,05,29,20,,,,,,1.47,1.19,0.86*0B
$GPRMC,223253.000,A,4735.5204,N,12222.7124,W,0.67,198.50,240716,,,D*7B
$GPVTG,198.50,T,,M,0.67,N,1.25,K,D*3A
$GPGGA,223254.000,4735.5203,N,12222.7118,W,2,07,1.19,-17.5,M,-17.4,M,0000,0000*4D
$GPGSA,A,3,12,25,06,02,05,29,20,,,,,,1.47,1.19,0.86*0B
$GPRMC,223254.000,A,4735.5203,N,12222.7118,W,0.64,159.67,240716,,,D*7E
$GPVTG,159.67,T,,M,0.64,N,1.18,K,D*3E
$GPGGA,223255.000,4735.5201,N,12222.7117,W,2,07,1.19,-17.6,M,-17.4,M,0000,0000*42
$GPGSA,A,3,12,25,06,02,05,29,20,,,,,,1.47,1.19,0.86*0B
$GPGSV,3,1,11,25,69,240,28,29,56,296,27,02,52,060,32,12,48,167,38*79
$GPGSV,3,2,11,05,43,132,19,48,34,194,33,31,20,304,,20,16,180,20*7C
$GPGSV,3,3,11,06,10,055,18,21,09,236,,09,02,033,*41
$GPRMC,223255.000,A,4735.5201,N,12222.7117,W,0.67,164.23,240716,,,D*7F
$GPVTG,164.23,T,,M,0.67,N,1.24,K,D*3C
$GPGGA,223256.000,4735.5201,N,12222.7117,W,2,07,1.19,-17.6,M,-17.4,M,0000,0000*41
$GPGSA,A,3,12,25,06,02,05,29,20,,,,,,1.47,1.19,0.86*0B
$GPRMC,223256.000,A,4735.5201,N,12222.7117,W,0.44,171.41,240716,,,D*7D
$GPVTG,171.41,T,,M,0.44,N,0.82,K,D*30
$GPGGA,223257.000,4735.5199,N,12222.7115,W,2,07,1.19,-17.6,M,-17.4,M,0000,0000*40
$GPGSA,A,3,12,25,06,02,05,29,20,,,,,,1.47,1.19,0.86*0B
$GPRMC,223257.000,A,4735.5199,N,12222.7115,W,0.57,173.88,240716,,,D*79
$GPVTG,173.88,T,,M,0.57,N,1.06,K,D*38
$GPGGA,223258.000,4735.5198,N,12222.7113,W,2,07,1.19,-17.6,M,-17.4,M,0000,0000*48
$GPGSA,A,3,12,25,06,02,05,29,20,,,,,,1.47,1.19,0.86*0B
$GPRMC,223258.000,A,4735.5198,N,12222.7113,W,0.42,167.70,240716,,,D*77
$GPVTG,167.70,T,,M,0.42,N,0.77,K,D*39
$GPGGA,223259.000,4735.5196,N,12222.7111,W,2,07,1.19,-17.7,M,-17.4,M,0000,0000*44
$GPGSA,A,3,12,25,06,02,05,29,20,,,,,,1.47,1.19,0.86*0B
$GPRMC,223259.000,A,4735.5196,N,12222.7111,W,0.52,171.21,240716,,,D*78
$GPVTG,171.21,T,,M,0.52,N,0.96,K,D*34
$GPGGA,223300.000,4735.5195,N,12222.7111,W,2,07,1.19,-17.7,M,-17.4,M,0000,0000*4A
$GPGSA,A,3,12,25,06,02,05,29,20,,,,,,1.47,1.19,0.86*0B
$GPGSV,3,1,11,25,69,240,30,29,56,296,28,02,52,060,33,12,48,167,38*7E
$GPGSV,3,2,11,05,43,132,21,48,34,194,32,31,20,304,,20,16,180,17*72
$GPGSV,3,3,11,06,10,055,19,21,09,236,,09,02,033,*40
$GPRMC,223300.000,A,4735.5195,N,12222.7111,W,0.53,181.76,240716,,,D*7A
$GPVTG,181.76,T,,M,0.53,N,0.98,K,D*36
$GPGGA,223301.000,4735.5193,N,12222.7111,W,2,07,1.19,-17.7,M,-17.4,M,0000,0000*4D
$GPGSA,A,3,12,25,06,02,05,29,20,,,,,,1.47,1.19,0.86*0B
$GPRMC,223301.000,A,4735.5193,N,12222.7111,W,0.41,171.65,240716,,,D*73
$GPVTG,171.65,T,,M,0.41,N,0.76,K,D*38
$GPGGA,223302.000,4735.5192,N,12222.7111,W,2,07,1.19,-17.7,M,-17.4,M,0000,0000*4F
$GPGSA,A,3,12,25,06,02,05,29,20,,,,,,1.47,1.19,0.86*0B
$GPRMC,223302.000,A,4735.5192,N,12222.7111,W,0.43,176.69,240716,,,D*78
$GPVTG,176.69,T,,M,0.43,N,0.80,K,D*38
$GPGGA,223303.000,4735.5191,N,12222.7111,W,2,07,1.19,-17.7,M,-17.4,M,0000,0000*4D
$GPGSA,A,3,12,25,06,02,05,29,20,,,,,,1.47,1.19,0.86*0B
$GPRMC,223303.000,A,4735.5191,N,12222.7111,W,0.37,159.45,240716,,,D*7A
$GPVTG,159.45,T,,M,0.37,N,0.68,K,D*3E
$GPGGA,223304.000,4735.5190,N,12222.7110,W,2,07,1.19,-17.7,M,-17.4,M,0000,0000*4A
$GPGSA,A,3,12,25,06,02,05,29,20,,,,,,1.47,1.19,0.86*0B
$GPRMC,223304.000,A,4735.5190,N,12222.7110,W,0.37,154.54,240716,,,D*70
$GPVTG,154.54,T,,M,0.37,N,0.68,K,D*33
$GPGGA,223305.000,4735.5189,N,12222.7109,W,2,07,1.19,-17.7,M,-17.4,M,0000,0000*4B
$GPGSA,A,3,12,25,06,02,05,29,20,,,,,,1.47,1.19,0.86*0B
$GPGSV,3,1,11,25,69,240,29,29,56,296,29,02,51,060,33,12,48,167,39*75
$GPGSV,3,2,11,05,43,131,20,48,34,194,31,31,20,304,,20,16,180,19*7D
$GPGSV,3,3,11,06,10,055,21,21,09,236,,09,02,033,*4B
$GPRMC,223305.000,A,4735.5189,N,12222.7109,W,0.51,160.18,240716,,,D*7E
$GPVTG,160.18,T,,M,0.51,N,0.94,K,D*3F
$GPGGA,223306.000,4735.5188,N,12222.7109,W,2,07,1.19,-17.7,M,-17.4,M,0000,0000*49
$GPGSA,A,3,12,25,06,02,05,29,20,,,,,,1.47,1.19,0.86*0B
$GPRMC,223306.000,A,4735.5188,N,12222.7109,W,0.40,133.31,240716,,,D*71
$GPVTG,133.31,T,,M,0.40,N,0.74,K,D*3C
$GPGGA,223307.000,4735.5187,N,12222.7108,W,2,07,1.19,-17.7,M,-17.4,M,0000,0000*46
$GPGSA,A,3,12,25,06,02,05,29,20,,,,,,1.47,1.19,0.86*0B
$GPRMC,223307.000,A,4735.5187,N,12222.7108,W,0.40,139.92,240716,,,D*7D
$GPVTG,139.92,T,,M,0.40,N,0.74,K,D*3F
$GPGGA,223308.000,4735.5186,N,12222.7106,W,2,07,1.19,-17.7,M,-17.4,M,0000,0000*46
$GPGSA,A,3,12,25,06,02,05,29,20,,,,,,1.47,1.19,0.86*0B
$GPRMC,223308.000,A,4735.5186,N,12222.7106,W,0.55,152.62,240716,,,D*7B
$GPVTG,152.62,T,,M,0.55,N,1.02,K,D*39
$GPGGA,223309.000,4735.5185,N,12222.7105,W,2,07,1.19,-17.7,M,-17.4,M,0000,0000*47
$GPGSA,A,3,12,25,06,02,05,29,20,,,,,,1.47,1.19,0.86*0B
$GPRMC,223309.000,A,4735.5185,N,12222.7105,W,0.60,150.42,240716,,,D*7C
$GPVTG,150.42,T,,M,0.60,N,1.12,K,D*3E
$GPGGA,223310.000,4735.5183,N,12222.7106,W,2,07,1.19,-17.7,M,-17.4,M,0000,0000*4A
$GPGSA,A,3,12,25,06,02,05,29,20,,,,,,1.47,1.19,0.86*0B
$GPGSV,3,1,11,25,69,240,29,29,56,296,31,02,51,060,33,12,48,167,39*7C
$GPGSV,3,2,11,05,43,131,19,48,34,194,32,31,20,304,,20,16,180,19*74
$GPGSV,3,3,11,06,09,055,22,21,09,236,,09,02,032,*41
$GPRMC,223310.000,A,4735.5183,N,12222.7106,W,0.61,161.83,240716,,,D*7F
$GPVTG,161.83,T,,M,0.61,N,1.13,K,D*31
$GPGGA,223311.000,4735.5183,N,12222.7105,W,2,07,1.19,-17.7,M,-17.4,M,0000,0000*48
$GPGSA,A,3,12,25,06,02,05,29,20,,,,,,1.47,1.19,0.86*0B
$GPRMC,223311.000,A,4735.5183,N,12222.7105,W,0.43,157.16,240716,,,D*74
$GPVTG,157.16,T,,M,0.43,N,0.79,K,D*35
$GPGGA,223312.000,4735.5183,N,12222.7104,W,2,07,1.19,-17.7,M,-17.4,M,0000,0000*4A
$GPGSA,A,3,12,25,06,02,05,29,20,,,,,,1.47,1.19,0.86*0B
$GPRMC,223312.000,A,4735.5183,N,12222.7104,W,0.30,150.71,240716,,,D*74
$GPVTG,150.71,T,,M,0.30,N,0.55,K,D*39
$GPGGA,223313.000,4735.5181,N,12222.7101,W,2,07,1.19,-17.7,M,-17.4,M,0000,0000*4C
$GPGSA,A,3,12,25,06,02,05,29,20,,,,,,1.47,1.19,0.86*0B
$GPRMC,223313.000,A,4735.5181,N,12222.7101,W,0.49,145.70,240716,,,D*79
$GPVTG,145.70,T,,M,0.49,N,0.91,K,D*3A
$GPGGA,223314.000,4735.5181,N,12222.7100,W,2,07,1.20,-17.8,M,-17.4,M,0000,0000*4F
$GPGSA,A,3,12,25,06,02,05,29,20,,,,,,1.47,1.20,0.86*01
$GPRMC,223314.000,A,4735.5181,N,12222.7100,W,0.39,148.53,240716,,,D*74
$GPVTG,148.53,T,,M,0.39,N,0.72,K,D*3C
$GPGGA,223315.000,4735.5180,N,12222.7099,W,2,07,1.19,-17.8,M,-17.4,M,0000,0000*44
$GPGSA,A,3,12,25,06,02,05,29,20,,,,,,1.47,1.19,0.86*0B
$GPGSV,3,1,11,25,69,240,29,29,56,296,31,02,51,060,33,12,47,167,39*73
$GPGSV,3,2,11,05,43,131,22,48,34,194,32,31,20,304,,20,16,180,19*7C
$GPGSV,3,3,11,06,09,055,21,21,09,236,,09,02,032,*42
$GPRMC,223315.000,A,4735.5180,N,12222.7099,W,0.48,168.88,240716,,,D*77
$GPVTG,168.88,T,,M,0.48,N,0.90,K,D*32
$GPGGA,223316.000,4735.5179,N,12222.7098,W,2,07,1.20,-17.8,M,-17.4,M,0000,0000*4A
$GPGSA,A,3,12,25,06,02,05,29,20,,,,,,1.47,1.20,0.86*01
$GPRMC,223316.000,A,4735.5179,N,12222.7098,W,0.54,166.31,240716,,,D*72
$GPVTG,166.31,T,,M,0.54,N,0.99,K,D*3A
$GPGGA,223317.000,4735.5177,N,12222.7098,W,2,07,1.20,-17.8,M,-17.4,M,0000,0000*45
$GPGSA,A,3,12,25,06,02,05,29,20,,,,,,1.47,1.20,0.86*01
$GPRMC,223317.000,A,4735.5177,N,12222.7098,W,0.56,158.05,240716,,,D*75
$GPVTG,158.05,T,,M,0.56,N,1.04,K,D*37
$GPGGA,223318.000,4735.5176,N,12222.7097,W,2,08,0.95,-17.8,M,-17.4,M,0000,0000*44
$GPGSA,A,3,12,31,25,06,02,05,29,20,,,,,1.24,0.95,0.80*0F
$GPRMC,223318.000,A,4735.5176,N,12222.7097,W,0.71,150.36,240716,,,D*79
$GPVTG,150.36,T,,M,0.71,N,1.32,K,D*3F
$GPGGA,223319.000,4735.5175,N,12222.7093,W,2,07,1.20,-17.8,M,-17.4,M,0000,0000*42
$GPGSA,A,3,12,25,06,02,05,29,20,,,,,,1.47,1.20,0.86*01
$GPRMC,223319.000,A,4735.5175,N,12222.7093,W,0.55,141.62,240716,,,D*78
$GPVTG,141.62,T,,M,0.55,N,1.01,K,D*38
$GPGGA,223320.000,4735.5175,N,12222.7093,W,2,08,0.95,-17.8,M,-17.4,M,0000,0000*48
$GPGSA,A,3,12,31,25,06,02,05,29,20,,,,,1.24,0.95,0.80*0F
$GPGSV,3,1,11,25,69,240,29,29,56,296,32,02,51,060,33,12,47,167,39*70
$GPGSV,3,2,11,05,43,131,21,48,34,194,33,31,20,304,26,20,16,180,19*7A
$GPGSV,3,3,11,06,09,055,23,21,09,236,,09,02,032,*40
$GPRMC,223320.000,A,4735.5175,N,12222.7093,W,0.45,151.02,240716,,,D*74
$GPVTG,151.02,T,,M,0.45,N,0.83,K,D*35
$GPGGA,223321.000,4735.5173,N,12222.7092,W,2,08,0.95,-17.8,M,-17.4,M,0000,0000*4E
$GPGSA,A,3,12,31,25,06,02,05,29,20,,,,,1.24,0.95,0.80*0F
$GPRMC,223321.000,A,4735.5173,N,12222.7092,W,0.52,159.73,240716,,,D*7A
$GPVTG,159.73,T,,M,0.52,N,0.97,K,D*38
$GPGGA,223322.000,4735.5172,N,12222.7090,W,2,07,1.20,-17.9,M,-17.4,M,0000,0000*4F
$GPGSA,A,3,12,25,06,02,05,29,20,,,,,,1.47,1.20,0.86*01
$GPRMC,223322.000,A,4735.5172,N,12222.7090,W,0.48,157.08,240716,,,D*73
$GPVTG,157.08,T,,M,0.48,N,0.89,K,D*3E
$GPGGA,223323.000,4735.5171,N,12222.7089,W,2,08,0.95,-17.9,M,-17.4,M,0000,0000*45
$GPGSA,A,3,12,31,25,06,02,05,29,20,,,,,1.24,0.95,0.80*0F
$GPRMC,223323.000,A,4735.5171,N,12222.7089,W,0.62,158.41,240716,,,D*73
$GPVTG,158.41,T,,M,0.62,N,1.15,K,D*30
$GPGGA,223324.000,4735.5169,N,12222.7088,W,2,08,0.95,-17.9,M,-17.4,M,0000,0000*4A
$GPGSA,A,3,12,31,25,06,02,05,29,20,,,,,1.24,0.95,0.80*0F
$GPRMC,223324.000,A,4735.5169,N,12222.7088,W,0.58,166.26,240716,,,D*79
$GPVTG,166.26,T,,M,0.58,N,1.07,K,D*36
$GPGGA,223325.000,4735.5169,N,12222.7088,W,2,07,1.20,-17.9,M,-17.4,M,0000,0000*4B
$GPGSA,A,3,12,25,06,02,05,29,20,,,,,,1.47,1.20,0.86*01
$GPGSV,3,1,11,25,69,239,28,29,56,296,33,02,51,060,33,12,47,167,39*7E
$GPGSV,3,2,11,05,43,131,23,48,34,194,33,31,20,304,,20,16,180,18*7D
$GPGSV,3,3,11,06,09,055,21,21,09,236,,09,02,032,*42
$GPRMC,223325.000,A,4735.5169,N,12222.7088,W,0.36,162.61,240716,,,D*77
$GPVTG,162.61,T,,M,0.36,N,0.67,K,D*3E
$GPGGA,223326.000,4735.5167,N,12222.7087,W,2,07,1.20,-17.9,M,-17.4,M,0000,0000*49
$GPGSA,A,3,12,25,06,02,05,29,20,,,,,,1.47,1.20,0.86*01
$GPRMC,223326.000,A,4735.5167,N,12222.7087,W,0.49,159.19,240716,,,D*7A
$GPVTG,159.19,T,,M,0.49,N,0.92,K,D*3B
$GPGGA,223327.000,4735.5166,N,12222.7087,W,2,08,0.95,-17.9,M,-17.4,M,0000,0000*49
$GPGSA,A,3,12,31,25,06,02,05,29,20,,,,,1.24,0.95,0.80*0F
$GPRMC,223327.000,A,4735.5166,N,12222.7087,W,0.49,174.02,240716,,,D*7F
$GPVTG,174.02,T,,M,0.49,N,0.91,K,D*3D
$GPGGA,223328.000,4735.5164,N,12222.7087,W,2,07,1.20,-17.9,M,-17.4,M,0000,0000*44
$GPGSA,A,3,12,25,06,02,05,29,20,,,,,,1.47,1.20,0.86*01
$GPRMC,223328.000,A,4735.5164,N,12222.7087,W,0.49,178.69,240716,,,D*73
$GPVTG,178.69,T,,M,0.49,N,0.91,K,D*3C
$GPGGA,223329.000,4735.5163,N,12222.7087,W,2,07,1.20,-17.9,M,-17.4,M,0000,0000*42
$GPGSA,A,3,12,25,06,02,05,29,20,,,,,,1.47,1.20,0.86*01
$GPRMC,223329.000,A,4735.5163,N,12222.7087,W,0.51,182.46,240716,,,D*74
$GPVTG,182.46,T,,M,0.51,N,0.94,K,D*38
$GPGGA,223330.000,4735.5162,N,12222.7087,W,2,08,0.95,-17.9,M,-17.4,M,0000,0000*4B
$GPGSA,A,3,12,31,25,06,02,05,29,20,,,,,1.24,0.95,0.80*0F
$GPGSV,3,1,11,25,69,239,28,29,57,297,31,02,51,060,32,12,47,167,39*7D
$GPGSV,3,2,11,05,43,131,17,48,34,194,33,31,20,304,25,20,16,180,17*72
$GPGSV,3,3,11,06,09,055,22,21,09,236,,09,02,032,*41
$GPRMC,223330.000,A,4735.5162,N,12222.7087,W,0.51,170.15,240716,,,D*76
$GPVTG,170.15,T,,M,0.51,N,0.94,K,D*33
$GPGGA,223331.000,4735.5160,N,12222.7087,W,2,08,0.95,-17.9,M,-17.4,M,0000,0000*48
$GPGSA,A,3,12,31,25,06,02,05,29,20,,,,,1.24,0.95,0.80*0F
$GPRMC,223331.000,A,4735.5160,N,12222.7087,W,0.30,183.95,240716,,,D*76
$GPVTG,183.95,T,,M,0.30,N,0.55,K,D*3D
$GPGGA,223332.000,4735.5159,N,12222.7087,W,2,08,0.95,-17.9,M,-17.4,M,0000,0000*41
$GPGSA,A,3,12,31,25,06,02,05,29,20,,,,,1.24,0.95,0.80*0F
$GPRMC,223332.000,A,4735.5159,N,12222.7087,W,0.33,171.03,240716,,,D*7E
$GPVTG,171.03,T,,M,0.33,N,0.61,K,D*3B
$GPGGA,223333.000,4735.5159,N,12222.7087,W,2,08,0.95,-17.9,M,-17.4,M,0000,0000*40
$GPGSA,A,3,12,31,25,06,02,05,29,20,,,,,1.24,0.95,0.80*0F
$GPRMC,223333.000,A,4735.5159,N,12222.7087,W,0.32,150.12,240716,,,D*7D
$GPVTG,150.12,T,,M,0.32,N,0.60,K,D*38
$GPGGA,223334.000,4735.5158,N,12222.7086,W,2,08,0.95,-17.9,M,-17.4,M,0000,0000*47
$GPGSA,A,3,12,31,25,06,02,05,29,20,,,,,1.24,0.95,0.80*0F
$GPRMC,223334.000,A,4735.5158,N,12222.7086,W,0.24,112.10,240716,,,D*79
$GPVTG,112.10,T,,M,0.24,N,0.45,K,D*3C
$GPGGA,223335.000,4735.5158,N,12222.7085,W,2,08,0.95,-17.9,M,-17.4,M,0000,0000*45
$GPGSA,A,3,12,31,25,06,02,05,29,20,,,,,1.24,0.95,0.80*0F
$GPGSV,3,1,11,25,69,239,28,29,57,297,34,02,51,060,32,12,47,167,39*78
$GPGSV,3,2,11,05,43,131,30,48,34,194,33,31,20,304,27,20,16,180,17*75
$GPGSV,3,3,11,06,09,055,21,21,09,236,,09,02,032,*42
$GPRMC,223335.000,A,4735.5158,N,12222.7085,W,0.57,128.40,240716,,,D*73
$GPVTG,128.40,T,,M,0.57,N,1.06,K,D*32
$GPGGA,223336.000,4735.5157,N,12222.7083,W,2,08,0.95,-17.9,M,-17.4,M,0000,0000*4F
$GPGSA,A,3,12,31,25,06,02,05,29,20,,,,,1.24,0.95,0.80*0F
$GPRMC,223336.000,A,4735.5157,N,12222.7083,W,0.41,143.19,240716,,,D*7F
$GPVTG,143.19,T,,M,0.41,N,0.76,K,D*32
$GPGGA,223337.000,4735.5156,N,12222.7082,W,2,08,0.95,-17.9,M,-17.4,M,0000,0000*4E
$GPGSA,A,3,12,31,25,06,02,05,29,20,,,,,1.24,0.95,0.80*0F
$GPRMC,223337.000,A,4735.5156,N,12222.7082,W,0.49,160.50,240716,,,D*7A
$GPVTG,160.50,T,,M,0.49,N,0.91,K,D*3F
$GPGGA,223338.000,4735.5154,N,12222.7082,W,2,08,0.95,-17.9,M,-17.4,M,0000,0000*43
$GPGSA,A,3,12,31,25,06,02,05,29,20,,,,,1.24,0.95,0.80*0F
$GPRMC,223338.000,A,4735.5154,N,12222.7082,W,0.50,163.48,240716,,,D*75
$GPVTG,163.48,T,,M,0.50,N,0.93,K,D*3F
$GPGGA,223339.000,4735.5153,N,12222.7081,W,2,08,0.95,-17.9,M,-17.4,M,0000,0000*46
$GPGSA,A,3,12,31,25,06,02,05,29,20,,,,,1.24,0.95,0.80*0F
$GPRMC,223339.000,A,4735.5153,N,12222.7081,W,0.44,174.59,240716,,,D*73
$GPVTG,174.59,T,,M,0.44,N,0.82,K,D*3C
$GPGGA,223340.000,4735.5152,N,12222.7081,W,2,08,0.95,-17.9,M,-17.4,M,0000,0000*49
$GPGSA,A,3,12,31,25,06,02,05,29,20,,,,,1.24,0.95,0.80*0F
$GPGSV,3,1,11,25,69,239,27,29,57,297,36,02,51,060,30,12,47,167,38*76
$GPGSV,3,2,11,05,44,131,32,48,34,194,33,31,20,304,24,20,16,180,24*73
$GPGSV,3,3,11,06,09,055,23,21,09,236,,09,02,032,*40
$GPRMC,223340.000,A,4735.5152,N,12222.7081,W,0.64,169.42,240716,,,D*78
$GPVTG,169.42,T,,M,0.64,N,1.18,K,D*3A
$GPGGA,223341.000,4735.5153,N,12222.7080,W,2,07,1.20,-17.9,M,-17.4,M,0000,0000*48
$GPGSA,A,3,12,25,06,02,05,29,20,,,,,,1.47,1.20,0.86*01
$GPRMC,223341.000,A,4735.5153,N,12222.7080,W,0.36,149.37,240716,,,D*7E
$GPVTG,149.37,T,,M,0.36,N,0.66,K,D*35
$GPGGA,223342.000,4735.5152,N,12222.7079,W,2,08,0.95,-17.9,M,-17.4,M,0000,0000*4C
$GPGSA,A,3,12,31,25,06,02,05,29,20,,,,,1.24,0.95,0.80*0F
$GPRMC,223342.000,A,4735.5152,N,12222.7079,W,0.37,143.96,240716,,,D*7A
$GPVTG,143.96,T,,M,0.37,N,0.68,K,D*3B
$GPGGA,223343.000,4735.5150,N,12222.7079,W,2,07,1.20,-17.9,M,-17.4,M,0000,0000*4F
$GPGSA,A,3,12,25,06,02,05,29,20,,,,,,1.47,1.20,0.86*01
$GPRMC,223343.000,A,4735.5150,N,12222.7079,W,0.48,159.64,240716,,,D*77
$GPVTG,159.64,T,,M,0.48,N,0.90,K,D*32
$GPGGA,223344.000,4735.5149,N,12222.7078,W,2,07,1.20,-17.9,M,-17.4,M,0000,0000*41
$GPGSA,A,3,12,25,06,02,05,29,20,,,,,,1.47,1.20,0.86*01
$GPRMC,223344.000,A,4735.5149,N,12222.7078,W,0.49,156.32,240716,,,D*74
$GPVTG,156.32,T,,M,0.49,N,0.91,K,D*3E
$GPGGA,223345.000,4735.5148,N,12222.7077,W,2,07,1.20,-17.9,M,-17.4,M,0000,0000*4E
$GPGSA,A,3,12,25,06,02,05,29,20,,,,,,1.47,1.20,0.86*01
$GPGSV,3,1,11,25,69,239,25,29,57,297,36,02,51,060,26,12,47,167,37*7C
$GPGSV,3,2,11,05,44,131,34,48,34,194,34,31,20,304,,20,16,180,28*78
$GPGSV,3,3,11,06,09,056,24,21,09,236,,09,02,032,15*40
$GPRMC,223345.000,A,4735.5148,N,12222.7077,W,0.70,134.51,240716,,,D*70
$GPVTG,134.51,T,,M,0.70,N,1.29,K,D*37
$GPGGA,223346.000,4735.5146,N,12222.7077,W,2,07,1.20,-17.9,M,-17.4,M,0000,0000*43
$GPGSA,A,3,12,25,06,02,05,29,20,,,,,,1.47,1.20,0.86*01
$GPRMC,223346.000,A,4735.5146,N,12222.7077,W,0.63,146.50,240716,,,D*7B
$GPVTG,146.50,T,,M,0.63,N,1.16,K,D*3D
$GPGGA,223347.000,4735.5145,N,12222.7077,W,2,07,1.20,-17.9,M,-17.4,M,0000,0000*41
$GPGSA,A,3,12,25,06,02,05,29,20,,,,,,1.47,1.20,0.86*01
$GPRMC,223347.000,A,4735.5145,N,12222.7077,W,0.47,154.36,240716,,,D*7C
$GPVTG,154.36,T,,M,0.47,N,0.87,K,D*31
$GPGGA,223348.000,4735.5144,N,12222.7075,W,2,07,1.20,-17.9,M,-17.4,M,0000,0000*4D
$GPGSA,A,3,12,25,06,02,05,29,20,,,,,,1.47,1.20,0.86*01
$GPRMC,223348.000,A,4735.5144,N,12222.7075,W,0.58,147.28,240716,,,D*73
$GPVTG,147.28,T,,M,0.58,N,1.07,K,D*3B
$GPGGA,223349.000,4735.5143,N,12222.7075,W,2,08,0.95,-17.9,M,-17.4,M,0000,0000*4B
$GPGSA,A,3,12,31,25,06,02,05,29,20,,,,,1.24,0.95,0.80*0F
$GPRMC,223349.000,A,4735.5143,N,12222.7075,W,0.57,152.62,240716,,,D*70
$GPVTG,152.62,T,,M,0.57,N,1.05,K,D*3C
$GPGGA,223350.000,4735.5142,N,12222.7075,W,2,07,1.20,-17.9,M,-17.4,M,0000,0000*42
$GPGSA,A,3,12,25,06,02,05,29,20,,,,,,1.47,1.20,0.86*01
$GPGSV,3,1,11,25,69,239,26,29,57,297,36,02,51,060,28,12,47,167,37*71
$GPGSV,3,2,11,05,44,131,34,48,34,194,33,31,20,304,,20,16,180,28*7F
$GPGSV,3,3,11,06,09,056,26,21,09,236,,09,02,032,16*41
$GPRMC,223350.000,A,4735.5142,N,12222.7075,W,0.68,157.04,240716,,,D*70
$GPVTG,157.04,T,,M,0.68,N,1.25,K,D*37
$GPGGA,223351.000,4735.5140,N,12222.7073,W,2,07,1.20,-17.9,M,-17.4,M,0000,0000*47
$GPGSA,A,3,12,25,06,02,05,29,20,,,,,,1.47,1.20,0.86*01
$GPRMC,223351.000,A,4735.5140,N,12222.7073,W,0.67,155.92,240716,,,D*77
$GPVTG,155.92,T,,M,0.67,N,1.25,K,D*35
$GPGGA,223352.000,4735.5140,N,12222.7071,W,2,07,1.20,-17.9,M,-17.4,M,0000,0000*46
$GPGSA,A,3,12,25,06,02,05,29,20,,,,,,1.47,1.20,0.86*01
$GPRMC,223352.000,A,4735.5140,N,12222.7071,W,0.58,143.66,240716,,,D*76
$GPVTG,143.66,T,,M,0.58,N,1.07,K,D*35
$GPGGA,223353.000,4735.5139,N,12222.7070,W,2,07,1.20,-17.9,M,-17.4,M,0000,0000*48
$GPGSA,A,3,12,25,06,02,05,29,20,,,,,,1.47,1.20,0.86*01
$GPRMC,223353.000,A,4735.5139,N,12222.7070,W,0.62,143.14,240716,,,D*74
$GPVTG,143.14,T,,M,0.62,N,1.16,K,D*39
$GPGGA,223354.000,4735.5138,N,12222.7069,W,2,07,1.20,-17.9,M,-17.4,M,0000,0000*46
$GPGSA,A,3,12,25,06,02,05,29,20,,,,,,1.47,1.20,0.86*01
$GPRMC,223354.000,A,4735.5138,N,12222.7069,W,0.59,145.10,240716,,,D*70
$GPVTG,145.10,T,,M,0.59,N,1.09,K,D*3D
$GPGGA,223355.000,4735.5137,N,12222.7067,W,2,07,1.20,-17.9,M,-17.4,M,0000,0000*46
$GPGSA,A,3,12,25,06,02,05,29,20,,,,,,1.47,1.20,0.86*01
$GPGSV,3,1,11,25,69,239,26,29,57,297,36,02,51,060,27,12,47,167,36*7F
$GPGSV,3,2,11,05,44,131,36,48,34,194,33,31,20,304,,20,17,180,28*7C
$GPGSV,3,3,11,06,09,056,26,21,09,236,,09,02,032,15*42
$GPRMC,223355.000,A,4735.5137,N,12222.7067,W,0.65,142.30,240716,,,D*7A
$GPVTG,142.30,T,,M,0.65,N,1.20,K,D*3C
$GPGGA,223356.000,4735.5137,N,12222.7066,W,2,07,1.20,-17.9,M,-17.4,M,0000,0000*44
$GPGSA,A,3,12,25,06,02,05,29,20,,,,,,1.47,1.20,0.86*01
$GPRMC,223356.000,A,4735.5137,N,12222.7066,W,0.56,142.27,240716,,,D*7E
$GPVTG,142.27,T,,M,0.56,N,1.03,K,D*3B
$GPGGA,223357.000,4735.5136,N,12222.7062,W,2,07,1.20,-17.9,M,-17.4,M,0000,0000*40
$GPGSA,A,3,12,25,06,02,05,29,20,,,,,,1.47,1.20,0.86*01
$GPRMC,223357.000,A,4735.5136,N,12222.7062,W,0.72,126.39,240716,,,D*71
$GPVTG,126.39,T,,M,0.72,N,1.33,K,D*33
$GPGGA,223358.000,4735.5135,N,12222.7061,W,2,07,1.20,-17.9,M,-17.4,M,0000,0000*4F
$GPGSA,A,3,12,25,06,02,05,29,20,,,,,,1.47,1.20,0.86*01
$GPRMC,223358.000,A,4735.5135,N,12222.7061,W,0.61,136.33,240716,,,D*77
$GPVTG,136.33,T,,M,0.61,N,1.13,K,D*38
$GPGGA,223359.000,4735.5134,N,12222.7060,W,2,07,1.20,-17.9,M,-17.4,M,0000,0000*4E
$GPGSA,A,3,12,25,06,02,05,29,20,,,,,,1.47,1.20,0.86*01
$GPRMC,223359.000,A,4735.5134,N,12222.7060,W,0.68,136.72,240716,,,D*7A
$GPVTG,136.72,T,,M,0.68,N,1.25,K,D*31
$GPGGA,223400.000,4735.5134,N,12222.7058,W,2,07,1.20,-17.9,M,-17.4,M,0000,0000*4E
$GPGSA,A,3,12,25,06,02,05,29,20,,,,,,1.47,1.20,0.86*01
$GPGSV,3,1,11,25,69,238,26,29,57,297,37,02,51,060,27,12,47,167,36*7F
$GPGSV,3,2,11,05,44,131,37,48,34,194,33,31,20,304,,20,17,180,28*7D
$GPGSV,3,3,11,06,09,056,27,21,09,236,,09,02,032,16*40
$GPRMC,223400.000,A,4735.5134,N,12222.7058,W,0.56,125.23,240716,,,D*71
$GPVTG,125.23,T,,M,0.56,N,1.04,K,D*39
$GPGGA,223401.000,4735.5133,N,12222.7057,W,2,07,1.20,-17.9,M,-17.4,M,0000,0000*47
$GPGSA,A,3,12,25,06,02,05,29,20,,,,,,1.47,1.20,0.86*01
$GPRMC,223401.000,A,4735.5133,N,12222.7057,W,0.64,135.76,240716,,,D*78
$GPVTG,135.76,T,,M,0.64,N,1.18,K,D*34
$GPGGA,223402.000,4735.5132,N,12222.7056,W,2,07,1.20,-18.0,M,-17.4,M,0000,0000*42
$GPGSA,A,3,12,25,06,02,05,29,20,,,,,,1.47,1.20,0.86*01
$GPRMC,223402.000,A,4735.5132,N,12222.7056,W,0.62,140.81,240716,,,D*77
$GPVTG,140.81,T,,M,0.62,N,1.16,K,D*36
$GPGGA,223403.000,4735.5131,N,12222.7058,W,2,07,1.20,-18.0,M,-17.4,M,0000,0000*4E
$GPGSA,A,3,12,25,06,02,05,29,20,,,,,,1.47,1.20,0.86*01
$GPRMC,223403.000,A,4735.5131,N,12222.7058,W,0.54,163.44,240716,,,D*76
$GPVTG,163.44,T,,M,0.54,N,1.00,K,D*3C
$GPGGA,223404.000,4735.5129,N,12222.7058,W,2,07,1.20,-18.0,M,-17.4,M,0000,0000*40
$GPGSA,A,3,12,25,06,02,05,29,20,,,,,,1.47,1.20,0.86*01
$GPRMC,223404.000,A,4735.5129,N,12222.7058,W,0.60,164.93,240716,,,D*72
$GPVTG,164.93,T,,M,0.60,N,1.11,K,D*36
$GPGGA,223405.000,4735.5129,N,12222.7056,W,2,07,1.20,-18.0,M,-17.4,M,0000,0000*4F
$GPGSA,A,3,12,25,06,02,05,29,20,,,,,,1.47,1.20,0.86*01
$GPGSV,3,1,11,25,69,238,26,29,57,297,36,02,51,060,27,12,47,167,36*7E
$GPGSV,3,2,11,05,44,131,36,48,34,194,33,31,20,304,,20,17,180,28*7C
$GPGSV,3,3,11,06,09,056,25,21,09,236,,09,02,032,16*42
$GPRMC,223405.000,A,4735.5129,N,12222.7056,W,0.53,151.24,240716,,,D*77
$GPVTG,151.24,T,,M,0.53,N,0.97,K,D*33
$GPGGA,223406.000,4735.5129,N,12222.7056,W,2,07,1.20,-18.0,M,-17.4,M,0000,0000*4C
$GPGSA,A,3,12,25,06,02,05,29,20,,,,,,1.47,1.20,0.86*01
$GPRMC,223406.000,A,4735.5129,N,12222.7056,W,0.45,154.05,240716,,,D*75
$GPVTG,154.05,T,,M,0.45,N,0.84,K,D*30
$GPGGA,223407.000,4735.5128,N,12222.7055,W,2,08,0.95,-18.0,M,-17.4,M,0000,0000*4F
$GPGSA,A,3,12,31,25,06,02,05,29,20,,,,,1.24,0.95,0.80*0F
$GPRMC,223407.000,A,4735.5128,N,12222.7055,W,0.48,155.00,240716,,,D*7F
$GPVTG,155.00,T,,M,0.48,N,0.89,K,D*34
$GPGGA,223408.000,4735.5128,N,12222.7054,W,2,08,0.95,-18.0,M,-17.4,M,0000,0000*41
$GPGSA,A,3,12,31,25,06,02,05,29,20,,,,,1.24,0.95,0.80*0F
$GPRMC,223408.000,A,4735.5128,N,12222.7054,W,0.41,145.49,240716,,,D*74
$GPVTG,145.49,T,,M,0.41,N,0.77,K,D*30
$GPGGA,223409.000,4735.5127,N,12222.7053,W,2,08,0.95,-18.0,M,-17.4,M,0000,0000*48
$GPGSA,A,3,12,31,25,06,02,05,29,20,,,,,1.24,0.95,0.80*0F
$GPRMC,223409.000,A,4735.5127,N,12222.7053,W,0.50,138.50,240716,,,D*7F
$GPVTG,138.50,T,,M,0.50,N,0.92,K,D*39
$GPGGA,223410.000,4735.5126,N,12222.7052,W,2,08,0.95,-18.0,M,-17.4,M,0000,0000*40
$GPGSA,A,3,12,31,25,06,02,05,29,20,,,,,1.24,0.95,0.80*0F
$GPGSV,3,1,11,25,69,238,25,29,57,297,35,02,51,060,27,12,47,167,36*7E
$GPGSV,3,2,11,05,44,131,36,48,34,194,33,31,20,304,28,20,17,180,28*76
$GPGSV,3,3,11,06,09,056,23,21,09,236,,09,02,032,18*4A
$GPRMC,223410.000,A,4735.5126,N,12222.7052,W,0.48,125.92,240716,,,D*7C
$GPVTG,125.92,T,,M,0.48,N,0.89,K,D*38
$GPGGA,223411.000,4735.5125,N,12222.7050,W,2,08,0.95,-18.0,M,-17.4,M,0000,0000*40
$GPGSA,A,3,12,31,25,06,02,05,29,20,,,,,1.24,0.95,0.80*0F
$GPRMC,223411.000,A,4735.5125,N,12222.7050,W,0.35,93.33,240716,,,D*41
$GPVTG,93.33,T,,M,0.35,N,0.65,K,D*07
$GPGGA,223412.000,4735.5125,N,12222.7049,W,2,08,0.95,-18.0,M,-17.4,M,0000,0000*4B
$GPGSA,A,3,12,31,25,06,02,05,29,20,,,,,1.24,0.95,0.80*0F
$GPRMC,223412.000,A,4735.5125,N,12222.7049,W,0.48,110.08,240716,,,D*72
$GPVTG,110.08,T,,M,0.48,N,0.88,K,D*3C
$GPGGA,223413.000,4735.5125,N,12222.7047,W,2,08,0.95,-18.0,M,-17.4,M,0000,0000*44
$GPGSA,A,3,12,31,25,06,02,05,29,20,,,,,1.24,0.95,0.80*0F
$GPRMC,223413.000,A,4735.5125,N,12222.7047,W,0.41,97.42,240716,,,D*44
$GPVTG,97.42,T,,M,0.41,N,0.77,K,D*05
$GPGGA,223414.000,4735.5124,N,12222.7045,W,2,08,0.95,-18.0,M,-17.4,M,0000,0000*40
$GPGSA,A,3,12,31,25,06,02,05,29,20,,,,,1.24,0.95,0.80*0F
$GPRMC,223414.000,A,4735.5124,N,12222.7045,W,0.30,104.59,240716,,,D*77
$GPVTG,104.59,T,,M,0.30,N,0.55,K,D*32
$GPGGA,223415.000,4735.5124,N,12222.7044,W,2,08,0.95,-18.0,M,-17.4,M,0000,0000*40
$GPGSA,A,3,12,31,25,06,02,05,29,20,,,,,1.24,0.95,0.80*0F
$GPGSV,3,1,11,25,69,238,26,29,57,297,35,02,51,060,25,12,47,167,35*7C
$GPGSV,3,2,11,05,44,131,38,48,34,194,32,31,20,304,24,20,17,180,28*75
$GPGSV,3,3,11,06,09,056,21,21,09,236,,09,02,032,18*48
$GPRMC,223415.000,A,4735.5124,N,12222.7044,W,0.36,132.46,240716,,,D*7A
$GPVTG,132.46,T,,M,0.36,N,0.67,K,D*3E
$GPGGA,223416.000,4735.5124,N,12222.7043,W,2,08,0.95,-18.0,M,-17.4,M,0000,0000*44
$GPGSA,A,3,12,31,25,06,02,05,29,20,,,,,1.24,0.95,0.80*0F
$GPRMC,223416.000,A,4735.5124,N,12222.7043,W,0.33,151.96,240716,,,D*73
$GPVTG,151.96,T,,M,0.33,N,0.61,K,D*35
$GPGGA,223417.000,4735.5123,N,12222.7042,W,2,08,0.95,-18.0,M,-17.4,M,0000,0000*43
$GPGSA,A,3,12,31,25,06,02,05,29,20,,,,,1.24,0.95,0.80*0F
$GPRMC,223417.000,A,4735.5123,N,12222.7042,W,0.31,144.77,240716,,,D*7D
$GPVTG,144.77,T,,M,0.31,N,0.57,K,D*39
$GPGGA,223418.000,4735.5122,N,12222.7042,W,2,08,0.95,-18.0,M,-17.4,M,0000,0000*4D
$GPGSA,A,3,12,31,25,06,02,05,29,20,,,,,1.24,0.95,0.80*0F
$GPRMC,223418.000,A,4735.5122,N,12222.7042,W,0.23,149.40,240716,,,D*79
$GPVTG,149.40,T,,M,0.23,N,0.43,K,D*36
$GPGGA,223419.000,4735.5121,N,12222.7041,W,2,08,0.95,-18.0,M,-17.4,M,0000,0000*4C
$GPGSA,A,3,12,31,25,06,02,05,29,20,,,,,1.24,0.95,0.80*0F
$GPRMC,223419.000,A,4735.5121,N,12222.7041,W,0.47,145.06,240716,,,D*74
$GPVTG,145.06,T,,M,0.47,N,0.87,K,D*32
$GPGGA,223420.000,4735.5120,N,12222.7040,W,2,08,0.95,-18.0,M,-17.4,M,0000,0000*46
$GPGSA,A,3,12,31,25,06,02,05,29,20,,,,,1.24,0.95,0.80*0F
$GPGSV,3,1,11,25,69,238,26,29,57,297,32,02,51,060,25,12,47,167,35*7B
$GPGSV,3,2,11,05,44,131,38,48,34,194,32,31,20,304,25,20,17,180,29*75
$GPGSV,3,3,11,06,09,056,19,21,09,236,,09,03,032,18*42
$GPRMC,223420.000,A,4735.5120,N,12222.7040,W,0.49,147.42,240716,,,D*72
$GPVTG,147.42,T,,M,0.49,N,0.90,K,D*38
$GPGGA,223421.000,4735.5119,N,12222.7039,W,2,08,0.95,-18.0,M,-17.4,M,0000,0000*43
$GPGSA,A,3,12,31,25,06,02,05,29,20,,,,,1.24,0.95,0.80*0F
$GPRMC,223421.000,A,4735.5119,N,12222.7039,W,0.50,134.83,240716,,,D*76
$GPVTG,134.83,T,,M,0.50,N,0.93,K,D*3A
$GPGGA,223422.000,4735.5118,N,12222.7037,W,2,08,0.95,-18.1,M,-17.4,M,0000,0000*4E
$GPGSA,A,3,12,31,25,06,02,05,29,20,,,,,1.24,0.95,0.80*0F
$GPRMC,223422.000,A,4735.5118,N,12222.7037,W,0.60,124.10,240716,,,D*72
$GPVTG,124.10,T,,M,0.60,N,1.12,K,D*3A
$GPGGA,223423.000,4735.5117,N,12222.7036,W,2,08,0.95,-18.0,M,-17.4,M,0000,0000*40
$GPGSA,A,3,12,31,25,06,02,05,29,20,,,,,1.24,0.95,0.80*0F
$GPRMC,223423.000,A,4735.5117,N,12222.7036,W,0.57,127.43,240716,,,D*7C
$GPVTG,127.43,T,,M,0.57,N,1.06,K,D*3E
$GPGGA,223424.000,4735.5117,N,12222.7033,W,2,08,0.95,-18.0,M,-17.4,M,0000,0000*42
$GPGSA,A,3,12,31,25,06,02,05,29,20,,,,,1.24,0.95,0.80*0F
$GPRMC,223424.000,A,4735.5117,N,12222.7033,W,0.72,118.43,240716,,,D*75
$GPVTG,118.43,T,,M,0.72,N,1.34,K,D*34
$GPGGA,223425.000,4735.5117,N,12222.7032,W,2,08,0.95,-18.0,M,-17.4,M,0000,0000*42
$GPGSA,A,3,12,31,25,06,02,05,29,20,,,,,1.24,0.95,0.80*0F
$GPGSV,3,1,11,25,69,238,26,29,57,297,31,02,51,060,25,12,47,167,33*7E
$GPGSV,3,2,11,05,44,131,38,48,34,194,32,31,20,304,26,20,17,180,29*76
$GPGSV,3,3,11,06,09,056,17,21,09,236,,09,03,032,16*42
$GPRMC,223425.000,A,4735.5117,N,12222.7032,W,0.50,109.71,240716,,,D*74
$GPVTG,109.71,T,,M,0.50,N,0.93,K,D*39
$GPGGA,223426.000,4735.5117,N,12222.7030,W,2,08,0.95,-18.0,M,-17.4,M,0000,0000*43
$GPGSA,A,3,12,31,25,06,02,05,29,20,,,,,1.24,0.95,0.80*0F
$GPRMC,223426.000,A,4735.5117,N,12222.7030,W,0.56,104.93,240716,,,D*72
$GPVTG,104.93,T,,M,0.56,N,1.04,K,D*31
$GPGGA,223427.000,4735.5117,N,12222.7030,W,2,08,0.95,-18.0,M,-17.4,M,0000,0000*42
$GPGSA,A,3,12,31,25,06,02,05,29,20,,,,,1.24,0.95,0.80*0F
$GPRMC,223427.000,A,4735.5117,N,12222.7030,W,0.34,97.59,240716,,,D*4A
$GPVTG,97.59,T,,M,0.34,N,0.64,K,D*0F
$GPGGA,223428.000,4735.5117,N,12222.7031,W,2,08,0.95,-18.0,M,-17.4,M,0000,0000*4C
$GPGSA,A,3,12,31,25,06,02,05,29,20,,,,,1.24,0.95,0.80*0F
$GPRMC,223428.000,A,4735.5117,N,12222.7031,W,0.24,93.60,240716,,,D*4B
$GPVTG,93.60,T,,M,0.24,N,0.44,K,D*02
$GPGGA,223429.000,4735.5117,N,12222.7030,W,2,08,0.95,-18.0,M,-17.4,M,0000,0000*4C
$GPGSA,A,3,12,31,25,06,02,05,29,20,,,,,1.24,0.95,0.80*0F
$GPRMC,223429.000,A,4735.5117,N,12222.7030,W,0.36,128.65,240716,,,D*7C
$GPVTG,128.65,T,,M,0.36,N,0.67,K,D*34
$GPGGA,223430.000,4735.5117,N,12222.7029,W,2,08,0.95,-18.0,M,-17.4,M,0000,0000*4C
$GPGSA,A,3,12,31,25,06,02,05,29,20,,,,,1.24,0.95,0.80*0F
$GPGSV,3,1,11,25,69,238,25,29,57,297,31,02,51,060,24,12,47,167,33*7C
$GPGSV,3,2,11,05,44,131,38,48,34,194,32,31,20,304,26,20,17,180,30*7E
$GPGSV,3,3,11,06,09,056,18,21,09,236,,09,03,032,*4A
$GPRMC,223430.000,A,4735.5117,N,12222.7029,W,0.41,120.34,240716,,,D*70
$GPVTG,120.34,T,,M,0.41,N,0.75,K,D*3B
$GPGGA,223431.000,4735.5116,N,12222.7027,W,2,08,0.95,-18.0,M,-17.4,M,0000,0000*42
$GPGSA,A,3,12,31,25,06,02,05,29,20,,,,,1.24,0.95,0.80*0F
$GPRMC,223431.000,A,4735.5116,N,12222.7027,W,0.49,126.62,240716,,,D*73
$GPVTG,126.62,T,,M,0.49,N,0.91,K,D*3C
$GPGGA,223432.000,4735.5115,N,12222.7026,W,2,08,0.95,-18.0,M,-17.4,M,0000,0000*43
$GPGSA,A,3,12,31,25,06,02,05,29,20,,,,,1.24,0.95,0.80*0F
$GPRMC,223432.000,A,4735.5115,N,12222.7026,W,0.39,131.19,240716,,,D*7F
$GPVTG,131.19,T,,M,0.39,N,0.72,K,D*3C
$GPGGA,223433.000,4735.5115,N,12222.7024,W,2,08,0.95,-18.0,M,-17.4,M,0000,0000*40
$GPGSA,A,3,12,31,25,06,02,05,29,20,,,,,1.24,0.95,0.80*0F
$GPRMC,223433.000,A,4735.5115,N,12222.7024,W,0.29,112.12,240716,,,D*77
$GPVTG,112.12,T,,M,0.29,N,0.54,K,D*33
$GPGGA,223434.000,4735.5114,N,12222.7023,W,2,08,0.95,-18.0,M,-17.4,M,0000,0000*41
$GPGSA,A,3,12,31,25,06,02,05,29,20,,,,,1.24,0.95,0.80*0F
$GPRMC,223434.000,A,4735.5114,N,12222.7023,W,0.41,120.57,240716,,,D*78
$GPVTG,120.57,T,,M,0.41,N,0.77,K,D*3C
$GPGGA,223435.000,4735.5114,N,12222.7022,W,2,08,0.95,-18.0,M,-17.4,M,0000,0000*41
$GPGSA,A,3,12,31,25,06,02,05,29,20,,,,,1.24,0.95,0.80*0F
$GPGSV,3,1,11,25,69,237,26,29,57,297,31,02,51,060,24,12,47,167,32*71
$GPGSV,3,2,11,05,44,131,38,48,34,194,32,31,20,304,26,20,17,180,30*7E
$GPGSV,3,3,11,06,09,056,16,21,09,236,,09,03,032,17*42
$GPRMC,223435.000,A,4735.5114,N,12222.7022,W,0.33,158.63,240716,,,D*75
$GPVTG,158.63,T,,M,0.33,N,0.60,K,D*37
$GPGGA,223436.000,4735.5113,N,12222.7021,W,2,08,0.95,-18.0,M,-17.4,M,0000,0000*46
$GPGSA,A,3,12,31,25,06,02,05,29,20,,,,,1.24,0.95,0.80*0F
$GPRMC,223436.000,A,4735.5113,N,12222.7021,W,0.40,155.11,240716,,,D*7E
$GPVTG,155.11,T,,M,0.40,N,0.74,K,D*3E
$GPGGA,223437.000,4735.5112,N,12222.7021,W,2,08,0.95,-18.0,M,-17.4,M,0000,0000*46
$GPGSA,A,3,12,31,25,06,02,05,29,20,,,,,1.24,0.95,0.80*0F
$GPRMC,223437.000,A,4735.5112,N,12222.7021,W,0.34,128.49,240716,,,D*7A
$GPVTG,128.49,T,,M,0.34,N,0.63,K,D*3C
$GPGGA,223438.000,4735.5111,N,12222.7020,W,2,08,0.95,-18.0,M,-17.4,M,0000,0000*4B
$GPGSA,A,3,12,31,25,06,02,05,29,20,,,,,1.24,0.95,0.80*0F
$GPRMC,223438.000,A,4735.5111,N,12222.7020,W,0.43,153.86,240716,,,D*78
$GPVTG,153.86,T,,M,0.43,N,0.79,K,D*38
$GPGGA,223439.000,4735.5110,N,12222.7019,W,2,08,0.95,-18.0,M,-17.4,M,0000,0000*41
$GPGSA,A,3,12,31,25,06,02,05,29,20,,,,,1.24,0.95,0.80*0F
