$GPGGA,224728.000,4735.5047,N,12222.7914,W,2,08,1.04,-17.7,M,-17.4,M,0000,0000*43
$GPGSA,A,3,12,31,25,02,21,05,29,20,,,,,1.36,1.04,0.87*07
$GPRMC,224728.000,A,4735.5047,N,12222.7914,W,0.97,323.32,240716,,,D*72
$GPVTG,323.32,T,,M,0.97,N,1.79,K,D*3A
$GPGGA,224729.000,4735.5048,N,12222.7916,W,2,08,1.04,-17.7,M,-17.4,M,0000,0000*4F
$GPGSA,A,3,12,31,25,02,21,05,29,20,,,,,1.36,1.04,0.87*07
$GPRMC,224729.000,A,4735.5048,N,12222.7916,W,0.94,321.24,240716,,,D*78
$GPVTG,321.24,T,,M,0.94,N,1.73,K,D*36
$GPGGA,224730.000,4735.5049,N,12222.7915,W,2,08,1.04,-17.7,M,-17.4,M,0000,0000*45
$GPGSA,A,3,12,31,25,02,21,05,29,20,,,,,1.36,1.04,0.87*07
$GPGSV,3,1,11,25,66,223,31,29,63,302,33,05,48,124,29,02,46,060,27*74
$GPGSV,3,2,11,12,41,167,29,20,22,179,20,31,20,298,28,21,14,239,30*7E
$GPGSV,3,3,11,06,04,057,,09,03,027,23,46,,,*75
$GPRMC,224730.000,A,4735.5049,N,12222.7915,W,0.64,319.68,240716,,,D*7E
$GPVTG,319.68,T,,M,0.64,N,1.19,K,D*36
$GPGGA,224731.000,4735.5048,N,12222.7918,W,2,08,1.04,-17.6,M,-17.4,M,0000,0000*49
$GPGSA,A,3,12,31,25,02,21,05,29,20,,,,,1.36,1.04,0.87*07
$GPRMC,224731.000,A,4735.5048,N,12222.7918,W,0.50,302.00,240716,,,D*70
$GPVTG,302.00,T,,M,0.50,N,0.93,K,D*36
$GPGGA,224732.000,4735.5048,N,12222.7921,W,2,08,1.04,-17.5,M,-17.4,M,0000,0000*43
$GPGSA,A,3,12,31,25,02,21,05,29,20,,,,,1.36,1.04,0.87*07
$GPRMC,224732.000,A,4735.5048,N,12222.7921,W,0.56,294.61,240716,,,D*76
$GPVTG,294.61,T,,M,0.56,N,1.04,K,D*36
$GPGGA,224733.000,4735.5050,N,12222.7923,W,2,08,1.04,-17.4,M,-17.4,M,0000,0000*48
$GPGSA,A,3,12,31,25,02,21,05,29,20,,,,,1.36,1.04,0.87*07
$GPRMC,224733.000,A,4735.5050,N,12222.7923,W,0.54,318.39,240716,,,D*76
$GPVTG,318.39,T,,M,0.54,N,1.01,K,D*39
$GPGGA,224734.000,4735.5051,N,12222.7923,W,2,08,1.04,-17.3,M,-17.4,M,0000,0000*49
$GPGSA,A,3,12,31,25,02,21,05,29,20,,,,,1.36,1.04,0.87*07
$GPRMC,224734.000,A,4735.5051,N,12222.7923,W,0.50,316.91,240716,,,D*78
$GPVTG,316.91,T,,M,0.50,N,0.93,K,D*3B
$GPGGA,224735.000,4735.5052,N,12222.7925,W,2,08,1.04,-17.3,M,-17.4,M,0000,0000*4D
$GPGSA,A,3,12,31,25,02,21,05,29,20,,,,,1.36,1.04,0.87*07
$GPGSV,3,1,11,25,66,223,30,29,63,302,35,05,48,124,28,02,46,060,26*73
$GPGSV,3,2,11,12,41,167,30,20,22,179,19,31,20,298,27,21,14,239,31*72
$GPGSV,3,3,11,06,04,057,,09,03,027,24,47,,,*73
$GPRMC,224735.000,A,4735.5052,N,12222.7925,W,0.69,307.62,240716,,,D*7A
$GPVTG,307.62,T,,M,0.69,N,1.27,K,D*33
$GPGGA,224736.000,4735.5054,N,12222.7927,W,2,08,1.04,-17.3,M,-17.4,M,0000,0000*4A
$GPGSA,A,3,12,31,25,02,21,05,29,20,,,,,1.36,1.04,0.87*07
$GPRMC,224736.000,A,4735.5054,N,12222.7927,W,0.75,310.03,240716,,,D*71
$GPVTG,310.03,T,,M,0.75,N,1.38,K,D*31
$GPGGA,224737.000,4735.5057,N,12222.7927,W,2,08,1.04,-17.3,M,-17.4,M,0000,0000*48
$GPGSA,A,3,12,31,25,02,21,05,29,20,,,,,1.36,1.04,0.87*07
$GPRMC,224737.000,A,4735.5057,N,12222.7927,W,0.71,343.24,240716,,,D*74
$GPVTG,343.24,T,,M,0.71,N,1.31,K,D*3F
$GPGGA,224738.000,4735.5058,N,12222.7926,W,2,08,1.04,-17.3,M,-17.4,M,0000,0000*49
$GPGSA,A,3,12,31,25,02,21,05,29,20,,,,,1.36,1.04,0.87*07
$GPRMC,224738.000,A,4735.5058,N,12222.7926,W,0.64,352.42,240716,,,D*71
$GPVTG,352.42,T,,M,0.64,N,1.18,K,D*30
$GPGGA,224739.000,4735.5061,N,12222.7929,W,2,08,1.13,-17.4,M,-17.4,M,0000,0000*4C
$GPGSA,A,3,12,31,25,02,21,05,29,20,,,,,2.12,1.13,1.79*04
$GPRMC,224739.000,A,4735.5061,N,12222.7929,W,0.84,333.27,240716,,,D*7F
$GPVTG,333.27,T,,M,0.84,N,1.56,K,D*30
$GPGGA,224740.000,4735.5062,N,12222.7931,W,2,08,1.04,-17.5,M,-17.4,M,0000,0000*4F
$GPGSA,A,3,12,31,25,02,21,05,29,20,,,,,1.36,1.04,0.87*07
$GPGSV,3,1,11,25,66,223,30,29,63,302,37,05,48,124,23,02,45,060,24*7B
$GPGSV,3,2,11,12,41,167,29,20,22,179,19,31,20,298,27,21,14,239,26*7C
$GPGSV,3,3,11,06,04,057,,09,03,027,23,49,,,*7A
$GPRMC,224740.000,A,4735.5062,N,12222.7931,W,0.64,317.74,240716,,,D*75
$GPVTG,317.74,T,,M,0.64,N,1.19,K,D*35
$GPGGA,224741.000,4735.5062,N,12222.7933,W,2,08,1.04,-17.4,M,-17.4,M,0000,0000*4D
$GPGSA,A,3,12,31,25,02,21,05,29,20,,,,,1.36,1.04,0.87*07
$GPRMC,224741.000,A,4735.5062,N,12222.7933,W,0.57,318.06,240716,,,D*7C
$GPVTG,318.06,T,,M,0.57,N,1.06,K,D*31
$GPGGA,224742.000,4735.5062,N,12222.7935,W,2,08,1.04,-17.4,M,-17.4,M,0000,0000*48
$GPGSA,A,3,12,31,25,02,21,05,29,20,,,,,1.36,1.04,0.87*07
$GPRMC,224742.000,A,4735.5062,N,12222.7935,W,0.54,318.44,240716,,,D*7C
$GPVTG,318.44,T,,M,0.54,N,1.00,K,D*32
$GPGGA,224743.000,4735.5063,N,12222.7937,W,2,07,1.11,-17.4,M,-17.4,M,0000,0000*41
$GPGSA,A,3,12,31,25,02,21,29,20,,,,,,1.41,1.11,0.87*06
$GPRMC,224743.000,A,4735.5063,N,12222.7937,W,0.45,319.23,240716,,,D*7E
$GPVTG,319.23,T,,M,0.45,N,0.84,K,D*3F
$GPGGA,224744.000,4735.5063,N,12222.7941,W,2,08,1.04,-17.3,M,-17.4,M,0000,0000*4B
$GPGSA,A,3,12,31,25,02,21,05,29,20,,,,,1.36,1.04,0.87*07
$GPRMC,224744.000,A,4735.5063,N,12222.7941,W,0.59,309.82,240716,,,D*7F
$GPVTG,309.82,T,,M,0.59,N,1.10,K,D*34
$GPGGA,224745.000,4735.5065,N,12222.7944,W,2,08,1.04,-17.2,M,-17.4,M,0000,0000*48
$GPGSA,A,3,12,31,25,02,21,05,29,20,,,,,1.36,1.04,0.87*07
$GPGSV,3,1,11,25,66,223,30,29,63,302,35,05,48,124,22,02,45,060,25*79
$GPGSV,3,2,11,12,41,167,28,20,22,179,18,31,20,298,28,21,14,239,22*77
$GPGSV,3,3,11,06,04,058,,09,03,027,22,49,,,*74
$GPRMC,224745.000,A,4735.5065,N,12222.7944,W,0.72,312.42,240716,,,D*72
$GPVTG,312.42,T,,M,0.72,N,1.34,K,D*3D
$GPGGA,224746.000,4735.5065,N,12222.7945,W,2,08,1.04,-17.1,M,-17.4,M,0000,0000*49
$GPGSA,A,3,12,31,25,02,21,05,29,20,,,,,1.36,1.04,0.87*07
$GPRMC,224746.000,A,4735.5065,N,12222.7945,W,0.55,311.13,240716,,,D*72
$GPVTG,311.13,T,,M,0.55,N,1.01,K,D*39
$GPGGA,224747.000,4735.5065,N,12222.7947,W,2,08,1.04,-17.1,M,-17.4,M,0000,0000*4A
$GPGSA,A,3,12,31,25,02,21,05,29,20,,,,,1.36,1.04,0.87*07
$GPRMC,224747.000,A,4735.5065,N,12222.7947,W,0.50,304.86,240716,,,D*7C
$GPVTG,304.86,T,,M,0.50,N,0.93,K,D*3E
$GPGGA,224748.000,4735.5066,N,12222.7947,W,2,08,1.04,-17.1,M,-17.4,M,0000,0000*46
$GPGSA,A,3,12,31,25,02,21,05,29,20,,,,,1.36,1.04,0.87*07
$GPRMC,224748.000,A,4735.5066,N,12222.7947,W,0.45,313.41,240716,,,D*79
$GPVTG,313.41,T,,M,0.45,N,0.83,K,D*36
$GPGGA,224749.000,4735.5066,N,12222.7946,W,2,08,1.04,-17.1,M,-17.4,M,0000,0000*46
$GPGSA,A,3,12,31,25,02,21,05,29,20,,,,,1.36,1.04,0.87*07
$GPRMC,224749.000,A,4735.5066,N,12222.7946,W,0.30,325.50,240716,,,D*7E
$GPVTG,325.50,T,,M,0.30,N,0.56,K,D*39
$GPGGA,224750.000,4735.5067,N,12222.7946,W,2,08,1.04,-17.1,M,-17.4,M,0000,0000*4F
$GPGSA,A,3,12,31,25,02,21,05,29,20,,,,,1.36,1.04,0.87*07
$GPGSV,3,1,11,25,66,223,29,29,63,302,36,05,48,124,20,02,45,060,24*71
$GPGSV,3,2,11,12,40,167,28,48,34,194,,20,22,179,18,31,20,298,28*7F
$GPGSV,3,3,11,21,14,239,20,06,04,058,,09,03,027,23*44
$GPRMC,224750.000,A,4735.5067,N,12222.7946,W,0.17,344.42,240716,,,D*76
$GPVTG,344.42,T,,M,0.17,N,0.31,K,D*39
$GPGGA,224751.000,4735.5067,N,12222.7947,W,2,08,1.04,-17.1,M,-17.4,M,0000,0000*4F
$GPGSA,A,3,12,31,25,02,21,05,29,20,,,,,1.36,1.04,0.87*07
$GPRMC,224751.000,A,4735.5067,N,12222.7947,W,0.15,339.40,240716,,,D*7C
$GPVTG,339.40,T,,M,0.15,N,0.27,K,D*34
$GPGGA,224752.000,4735.5068,N,12222.7947,W,2,08,1.04,-17.1,M,-17.4,M,0000,0000*43
$GPGSA,A,3,12,31,25,02,21,05,29,20,,,,,1.36,1.04,0.87*07
$GPRMC,224752.000,A,4735.5068,N,12222.7947,W,0.50,329.77,240716,,,D*74
$GPVTG,329.77,T,,M,0.50,N,0.93,K,D*3F
$GPGGA,224753.000,4735.5069,N,12222.7948,W,2,07,1.10,-17.1,M,-17.4,M,0000,0000*46
$GPGSA,A,3,12,31,25,02,21,29,20,,,,,,1.41,1.10,0.87*07
$GPRMC,224753.000,A,4735.5069,N,12222.7948,W,0.57,326.88,240716,,,D*73
$GPVTG,326.88,T,,M,0.57,N,1.06,K,D*3A
$GPGGA,224754.000,4735.5070,N,12222.7949,W,2,07,1.10,-17.1,M,-17.4,M,0000,0000*48
$GPGSA,A,3,12,31,25,02,21,29,20,,,,,,1.41,1.10,0.87*07
$GPRMC,224754.000,A,4735.5070,N,12222.7949,W,0.56,311.26,240716,,,D*7C
$GPVTG,311.26,T,,M,0.56,N,1.03,K,D*3E
$GPGGA,224755.000,4735.5071,N,12222.7951,W,2,07,1.10,-17.1,M,-17.4,M,0000,0000*41
$GPGSA,A,3,12,31,25,02,21,29,20,,,,,,1.41,1.10,0.87*07
$GPGSV,3,1,11,25,66,223,28,29,63,302,37,05,48,124,,02,45,060,24*73
$GPGSV,3,2,11,12,40,167,30,48,34,194,,20,23,179,20,31,20,298,29*7D
$GPGSV,3,3,11,21,14,239,23,06,04,058,,09,03,027,22*46
$GPRMC,224755.000,A,4735.5071,N,12222.7951,W,0.65,301.98,240716,,,D*71
$GPVTG,301.98,T,,M,0.65,N,1.21,K,D*3A
$GPGGA,224756.000,4735.5071,N,12222.7955,W,2,07,1.10,-17.1,M,-17.4,M,0000,0000*46
$GPGSA,A,3,12,31,25,02,21,29,20,,,,,,1.41,1.10,0.87*07
$GPRMC,224756.000,A,4735.5071,N,12222.7955,W,0.60,281.13,240716,,,D*79
$GPVTG,281.13,T,,M,0.60,N,1.11,K,D*36
$GPGGA,224757.000,4735.5069,N,12222.7956,W,2,07,1.10,-17.1,M,-17.4,M,0000,0000*4D
$GPGSA,A,3,12,31,25,02,21,29,20,,,,,,1.41,1.10,0.87*07
$GPRMC,224757.000,A,4735.5069,N,12222.7956,W,0.54,250.67,240716,,,D*7A
$GPVTG,250.67,T,,M,0.54,N,1.00,K,D*3E
$GPGGA,224758.000,4735.5071,N,12222.7959,W,2,08,1.04,-17.1,M,-17.4,M,0000,0000*4E
$GPGSA,A,3,12,31,25,02,21,05,29,20,,,,,1.36,1.04,0.87*07
$GPRMC,224758.000,A,4735.5071,N,12222.7959,W,0.68,281.94,240716,,,D*7C
$GPVTG,281.94,T,,M,0.68,N,1.26,K,D*35
$GPGGA,224759.000,4735.5072,N,12222.7964,W,2,08,1.04,-17.1,M,-17.4,M,0000,0000*42
$GPGSA,A,3,12,31,25,02,21,05,29,20,,,,,1.36,1.04,0.87*07
$GPRMC,224759.000,A,4735.5072,N,12222.7964,W,0.73,280.44,240716,,,D*76
$GPVTG,280.44,T,,M,0.73,N,1.34,K,D*30
$GPGGA,224800.000,4735.5072,N,12222.7967,W,2,07,1.10,-17.1,M,-17.4,M,0000,0000*48
$GPGSA,A,3,12,31,25,02,21,29,20,,,,,,1.41,1.10,0.87*07
$GPGSV,3,1,11,25,66,222,25,29,63,302,38,05,48,124,,02,45,060,21*75
$GPGSV,3,2,11,12,40,167,30,48,34,194,27,20,23,179,19,31,20,298,28*73
$GPGSV,3,3,11,21,14,239,26,06,04,058,,09,03,027,*43
$GPRMC,224800.000,A,4735.5072,N,12222.7967,W,0.73,284.40,240716,,,D*76
$GPVTG,284.40,T,,M,0.73,N,1.36,K,D*32
$GPGGA,224801.000,4735.5071,N,12222.7971,W,2,07,1.10,-17.1,M,-17.4,M,0000,0000*4D
$GPGSA,A,3,12,31,25,02,21,29,20,,,,,,1.41,1.10,0.87*07
$GPRMC,224801.000,A,4735.5071,N,12222.7971,W,0.68,277.52,240716,,,D*76
$GPVTG,277.52,T,,M,0.68,N,1.25,K,D*35
$GPGGA,224802.000,4735.5071,N,12222.7975,W,2,08,1.04,-17.1,M,-17.4,M,0000,0000*40
$GPGSA,A,3,12,31,25,02,21,05,29,20,,,,,1.36,1.04,0.87*07
$GPRMC,224802.000,A,4735.5071,N,12222.7975,W,0.74,273.99,240716,,,D*7F
$GPVTG,273.99,T,,M,0.74,N,1.36,K,D*39
$GPGGA,224803.000,4735.5069,N,12222.7980,W,2,08,1.04,-17.1,M,-17.4,M,0000,0000*42
$GPGSA,A,3,12,31,25,02,21,05,29,20,,,,,1.36,1.04,0.87*07
$GPRMC,224803.000,A,4735.5069,N,12222.7980,W,0.73,266.84,240716,,,D*72
$GPVTG,266.84,T,,M,0.73,N,1.34,K,D*34
$GPGGA,224804.000,4735.5067,N,12222.7987,W,2,08,1.04,-17.0,M,-17.4,M,0000,0000*4D
$GPGSA,A,3,12,31,25,02,21,05,29,20,,,,,1.36,1.04,0.87*07
$GPRMC,224804.000,A,4735.5067,N,12222.7987,W,0.88,259.40,240716,,,D*7C
$GPVTG,259.40,T,,M,0.88,N,1.63,K,D*36
$GPGGA,224805.000,4735.5067,N,12222.7991,W,2,08,1.04,-17.0,M,-17.4,M,0000,0000*4B
$GPGSA,A,3,12,31,25,02,21,05,29,20,,,,,1.36,1.04,0.87*07
$GPGSV,3,1,11,25,66,222,26,29,63,303,38,05,48,124,28,02,45,060,23*7F
$GPGSV,3,2,11,12,40,167,30,48,34,194,26,20,23,179,24,31,20,298,27*73
$GPGSV,3,3,11,21,14,239,23,06,04,058,19,09,03,027,*4E
$GPRMC,224805.000,A,4735.5067,N,12222.7991,W,0.83,259.60,240716,,,D*73
$GPVTG,259.60,T,,M,0.83,N,1.53,K,D*3C
$GPGGA,224806.000,4735.5068,N,12222.7995,W,2,08,1.04,-17.0,M,-17.4,M,0000,0000*43
$GPGSA,A,3,12,31,25,02,21,05,29,20,,,,,1.36,1.04,0.87*07
$GPRMC,224806.000,A,4735.5068,N,12222.7995,W,0.85,274.26,240716,,,D*70
$GPVTG,274.26,T,,M,0.85,N,1.57,K,D*33
$GPGGA,224807.000,4735.5068,N,12222.8000,W,2,08,1.04,-17.0,M,-17.4,M,0000,0000*48
$GPGSA,A,3,12,31,25,02,21,05,29,20,,,,,1.36,1.04,0.87*07
$GPRMC,224807.000,A,4735.5068,N,12222.8000,W,0.85,268.70,240716,,,D*75
$GPVTG,268.70,T,,M,0.85,N,1.57,K,D*3D
$GPGGA,224808.000,4735.5068,N,12222.8004,W,2,08,1.04,-17.1,M,-17.4,M,0000,0000*42
$GPGSA,A,3,12,31,25,02,21,05,29,20,,,,,1.36,1.04,0.87*07
$GPRMC,224808.000,A,4735.5068,N,12222.8004,W,0.93,275.72,240716,,,D*77
$GPVTG,275.72,T,,M,0.93,N,1.73,K,D*32
$GPGGA,224809.000,4735.5068,N,12222.8007,W,2,08,1.04,-17.1,M,-17.4,M,0000,0000*40
$GPGSA,A,3,12,31,25,02,21,05,29,20,,,,,1.36,1.04,0.87*07
$GPRMC,224809.000,A,4735.5068,N,12222.8007,W,0.84,274.74,240716,,,D*74
$GPVTG,274.74,T,,M,0.84,N,1.55,K,D*37
$GPGGA,224810.000,4735.5067,N,12222.8010,W,2,08,1.04,-17.1,M,-17.4,M,0000,0000*41
$GPGSA,A,3,12,31,25,02,21,05,29,20,,,,,1.36,1.04,0.87*07
$GPGSV,3,1,11,25,66,222,25,29,63,303,37,05,48,124,27,02,45,060,22*7D
$GPGSV,3,2,11,12,40,167,30,51,33,159,,20,23,179,22,31,20,297,27*70
$GPGSV,3,3,11,21,14,239,20,06,04,058,20,09,03,027,*47
$GPRMC,224810.000,A,4735.5067,N,12222.8010,W,0.72,263.51,240716,,,D*7D
$GPVTG,263.51,T,,M,0.72,N,1.34,K,D*38
$GPGGA,224811.000,4735.5069,N,12222.8013,W,2,08,1.04,-17.1,M,-17.4,M,0000,0000*4D
$GPGSA,A,3,12,31,25,02,21,05,29,20,,,,,1.36,1.04,0.87*07
$GPRMC,224811.000,A,4735.5069,N,12222.8013,W,0.86,277.34,240716,,,D*7C
$GPVTG,277.34,T,,M,0.86,N,1.59,K,D*3E
$GPGGA,224812.000,4735.5068,N,12222.8018,W,2,08,1.04,-17.1,M,-17.4,M,0000,0000*44
$GPGSA,A,3,12,31,25,02,21,05,29,20,,,,,1.36,1.04,0.87*07
$GPRMC,224812.000,A,4735.5068,N,12222.8018,W,0.98,272.66,240716,,,D*78
$GPVTG,272.66,T,,M,0.98,N,1.81,K,D*36
$GPGGA,224813.000,4735.5067,N,12222.8023,W,2,08,1.04,-17.0,M,-17.4,M,0000,0000*43
$GPGSA,A,3,12,31,25,02,21,05,29,20,,,,,1.36,1.04,0.87*07
$GPRMC,224813.000,A,4735.5067,N,12222.8023,W,1.06,263.83,240716,,,D*73
$GPVTG,263.83,T,,M,1.06,N,1.96,K,D*3D
$GPGGA,224814.000,4735.5068,N,12222.8025,W,2,08,1.04,-17.0,M,-17.4,M,0000,0000*4D
$GPGSA,A,3,12,31,25,02,21,05,29,20,,,,,1.36,1.04,0.87*07
$GPRMC,224814.000,A,4735.5068,N,12222.8025,W,0.84,264.52,240716,,,D*7D
$GPVTG,264.52,T,,M,0.84,N,1.57,K,D*30
$GPGGA,224815.000,4735.5070,N,12222.8027,W,2,08,1.04,-17.0,M,-17.4,M,0000,0000*47
$GPGSA,A,3,12,31,25,02,21,05,29,20,,,,,1.36,1.04,0.87*07
$GPGSV,3,1,11,25,66,222,26,29,63,303,37,05,48,123,26,02,45,060,21*7B
$GPGSV,3,2,11,12,40,167,30,51,33,159,,20,23,179,25,31,20,297,27*77
$GPGSV,3,3,11,21,14,239,20,06,04,058,20,09,03,027,*47
$GPRMC,224815.000,A,4735.5070,N,12222.8027,W,0.79,276.12,240716,,,D*72
$GPVTG,276.12,T,,M,0.79,N,1.46,K,D*35
$GPGGA,224816.000,4735.5071,N,12222.8027,W,2,08,1.04,-17.0,M,-17.4,M,0000,0000*45
$GPGSA,A,3,12,31,25,02,21,05,29,20,,,,,1.36,1.04,0.87*07
$GPRMC,224816.000,A,4735.5071,N,12222.8027,W,0.52,275.63,240716,,,D*7C
$GPVTG,275.63,T,,M,0.52,N,0.96,K,D*35
$GPGGA,224817.000,4735.5073,N,12222.8029,W,2,08,1.04,-17.0,M,-17.4,M,0000,0000*48
$GPGSA,A,3,12,31,25,02,21,05,29,20,,,,,1.36,1.04,0.87*07
$GPRMC,224817.000,A,4735.5073,N,12222.8029,W,0.63,288.24,240716,,,D*72
$GPVTG,288.24,T,,M,0.63,N,1.17,K,D*3E
$GPGGA,224818.000,4735.5075,N,12222.8031,W,2,08,1.04,-17.0,M,-17.4,M,0000,0000*48
$GPGSA,A,3,12,31,25,02,21,05,29,20,,,,,1.36,1.04,0.87*07
$GPRMC,224818.000,A,4735.5075,N,12222.8031,W,0.65,299.04,240716,,,D*76
$GPVTG,299.04,T,,M,0.65,N,1.21,K,D*3F
$GPGGA,224819.000,4735.5076,N,12222.8033,W,2,08,1.04,-17.0,M,-17.4,M,0000,0000*48
$GPGSA,A,3,12,31,25,02,21,05,29,20,,,,,1.36,1.04,0.87*07
$GPRMC,224819.000,A,4735.5076,N,12222.8033,W,0.58,297.88,240716,,,D*72
$GPVTG,297.88,T,,M,0.58,N,1.07,K,D*3F
$GPGGA,224820.000,4735.5078,N,12222.8036,W,2,08,1.04,-17.0,M,-17.4,M,0000,0000*49
$GPGSA,A,3,12,31,25,02,21,05,29,20,,,,,1.36,1.04,0.87*07
$GPGSV,3,1,11,25,66,222,25,29,63,303,38,05,48,123,27,02,45,060,21*76
$GPGSV,3,2,11,12,40,167,31,20,23,179,25,31,20,297,28,21,14,239,20*7C
$GPGSV,3,3,11,06,04,058,,09,03,027,,34,,,*7E
$GPRMC,224820.000,A,4735.5078,N,12222.8036,W,0.71,309.00,240716,,,D*7E
$GPVTG,309.00,T,,M,0.71,N,1.31,K,D*37
$GPGGA,224821.000,4735.5078,N,12222.8039,W,2,08,1.04,-17.0,M,-17.4,M,0000,0000*47
$GPGSA,A,3,12,31,25,02,21,05,29,20,,,,,1.36,1.04,0.87*07
$GPRMC,224821.000,A,4735.5078,N,12222.8039,W,0.58,305.57,240716,,,D*75
$GPVTG,305.57,T,,M,0.58,N,1.07,K,D*37
$GPGGA,224822.000,4735.5079,N,12222.8038,W,2,08,1.04,-17.0,M,-17.4,M,0000,0000*44
$GPGSA,A,3,12,31,25,02,21,05,29,20,,,,,1.36,1.04,0.87*07
$GPRMC,224822.000,A,4735.5079,N,12222.8038,W,0.29,323.33,240716,,,D*76
$GPVTG,323.33,T,,M,0.29,N,0.54,K,D*30
$GPGGA,224823.000,4735.5080,N,12222.8037,W,2,08,1.04,-17.0,M,-17.4,M,0000,0000*4C
$GPGSA,A,3,12,31,25,02,21,05,29,20,,,,,1.36,1.04,0.87*07
$GPRMC,224823.000,A,4735.5080,N,12222.8037,W,0.31,345.67,240716,,,D*76
$GPVTG,345.67,T,,M,0.31,N,0.57,K,D*3B
$GPGGA,224824.000,4735.5081,N,12222.8037,W,2,08,1.13,-17.0,M,-17.4,M,0000,0000*4C
$GPGSA,A,3,12,31,25,02,21,05,29,20,,,,,2.12,1.13,1.79*04
$GPRMC,224824.000,A,4735.5081,N,12222.8037,W,0.29,355.04,240716,,,D*7D
$GPVTG,355.04,T,,M,0.29,N,0.53,K,D*32
$GPGGA,224825.000,4735.5082,N,12222.8037,W,2,08,1.13,-17.0,M,-17.4,M,0000,0000*4E
$GPGSA,A,3,12,31,25,02,21,05,29,20,,,,,2.12,1.13,1.79*04
$GPGSV,3,1,11,25,66,222,26,29,63,303,37,05,48,123,30,02,45,060,24*79
$GPGSV,3,2,11,12,40,168,30,20,23,179,26,31,20,297,27,21,14,239,22*7C
$GPGSV,3,3,11,06,04,058,,09,03,027,,34,,,*7E
$GPRMC,224825.000,A,4735.5082,N,12222.8037,W,0.53,345.72,240716,,,D*72
$GPVTG,345.72,T,,M,0.53,N,0.99,K,D*39
$GPGGA,224826.000,4735.5084,N,12222.8037,W,2,08,1.13,-17.0,M,-17.4,M,0000,0000*4B
$GPGSA,A,3,12,31,25,02,21,05,29,20,,,,,2.12,1.13,1.79*04
$GPRMC,224826.000,A,4735.5084,N,12222.8037,W,0.53,339.94,240716,,,D*74
$GPVTG,339.94,T,,M,0.53,N,0.98,K,D*3B
$GPGGA,224827.000,4735.5085,N,12222.8038,W,2,08,1.04,-17.0,M,-17.4,M,0000,0000*42
$GPGSA,A,3,12,31,25,02,21,05,29,20,,,,,1.36,1.04,0.87*07
$GPRMC,224827.000,A,4735.5085,N,12222.8038,W,0.67,336.07,240716,,,D*79
$GPVTG,336.07,T,,M,0.67,N,1.24,K,D*3F
$GPGGA,224828.000,4735.5087,N,12222.8038,W,2,08,1.04,-16.9,M,-17.4,M,0000,0000*47
$GPGSA,A,3,12,31,25,02,21,05,29,20,,,,,1.36,1.04,0.87*07
$GPRMC,224828.000,A,4735.5087,N,12222.8038,W,0.66,333.98,240716,,,D*76
$GPVTG,333.98,T,,M,0.66,N,1.22,K,D*3B
$GPGGA,224829.000,4735.5090,N,12222.8038,W,2,08,1.04,-16.9,M,-17.4,M,0000,0000*40
$GPGSA,A,3,12,31,25,02,21,05,29,20,,,,,1.36,1.04,0.87*07
$GPRMC,224829.000,A,4735.5090,N,12222.8038,W,0.75,334.87,240716,,,D*7A
$GPVTG,334.87,T,,M,0.75,N,1.38,K,D*3B
$GPGGA,224830.000,4735.5090,N,12222.8041,W,2,08,1.04,-16.8,M,-17.4,M,0000,0000*47
$GPGSA,A,3,12,31,25,02,21,05,29,20,,,,,1.36,1.04,0.87*07
$GPGSV,3,1,11,25,66,222,26,29,63,303,38,05,48,123,23,02,45,060,22*72
$GPGSV,3,2,11,12,40,168,31,20,23,179,21,31,20,297,29,21,14,239,26*70
$GPGSV,3,3,11,06,04,058,,09,03,027,,35,,,*7F
$GPRMC,224830.000,A,4735.5090,N,12222.8041,W,0.68,322.70,240716,,,D*7F
$GPVTG,322.70,T,,M,0.68,N,1.25,K,D*34
$GPGGA,224831.000,4735.5092,N,12222.8041,W,2,08,1.04,-16.8,M,-17.4,M,0000,0000*44
$GPGSA,A,3,12,31,25,02,21,05,29,20,,,,,1.36,1.04,0.87*07
$GPRMC,224831.000,A,4735.5092,N,12222.8041,W,0.69,323.82,240716,,,D*71
$GPVTG,323.82,T,,M,0.69,N,1.27,K,D*3B
$GPGGA,224832.000,4735.5093,N,12222.8043,W,2,08,1.04,-16.8,M,-17.4,M,0000,0000*44
$GPGSA,A,3,12,31,25,02,21,05,29,20,,,,,1.36,1.04,0.87*07
$GPRMC,224832.000,A,4735.5093,N,12222.8043,W,0.63,325.35,240716,,,D*71
$GPVTG,325.35,T,,M,0.63,N,1.17,K,D*38
$GPGGA,224833.000,4735.5095,N,12222.8044,W,2,08,1.04,-16.8,M,-17.4,M,0000,0000*44
$GPGSA,A,3,12,31,25,02,21,05,29,20,,,,,1.36,1.04,0.87*07
$GPRMC,224833.000,A,4735.5095,N,12222.8044,W,0.58,326.56,240716,,,D*7F
$GPVTG,326.56,T,,M,0.58,N,1.08,K,D*38
$GPGGA,224834.000,4735.5097,N,12222.8045,W,2,08,1.04,-16.8,M,-17.4,M,0000,0000*40
$GPGSA,A,3,12,31,25,02,21,05,29,20,,,,,1.36,1.04,0.87*07
$GPRMC,224834.000,A,4735.5097,N,12222.8045,W,0.67,334.89,240716,,,D*76
$GPVTG,334.89,T,,M,0.67,N,1.24,K,D*3B
$GPGGA,224835.000,4735.5101,N,12222.8046,W,2,08,1.04,-16.9,M,-17.4,M,0000,0000*4D
$GPGSA,A,3,12,31,25,02,21,05,29,20,,,,,1.36,1.04,0.87*07
$GPGSV,3,1,11,25,66,222,29,29,63,303,36,05,48,123,18,02,45,060,25*7C
$GPGSV,3,2,11,12,40,168,28,20,23,179,19,31,20,297,29,21,15,239,20*74
$GPGSV,3,3,11,06,04,058,,09,03,027,22,36,,,*7C
$GPRMC,224835.000,A,4735.5101,N,12222.8046,W,0.86,335.91,240716,,,D*7D
$GPVTG,335.91,T,,M,0.86,N,1.59,K,D*36
$GPGGA,224836.000,4735.5102,N,12222.8047,W,2,08,1.04,-16.9,M,-17.4,M,0000,0000*4C
$GPGSA,A,3,12,31,25,02,21,05,29,20,,,,,1.36,1.04,0.87*07
$GPRMC,224836.000,A,4735.5102,N,12222.8047,W,0.68,337.64,240716,,,D*74
$GPVTG,337.64,T,,M,0.68,N,1.26,K,D*36
$GPGGA,224837.000,4735.5104,N,12222.8049,W,2,08,1.04,-16.9,M,-17.4,M,0000,0000*45
$GPGSA,A,3,12,31,25,02,21,05,29,20,,,,,1.36,1.04,0.87*07
$GPRMC,224837.000,A,4735.5104,N,12222.8049,W,0.69,337.68,240716,,,D*70
$GPVTG,337.68,T,,M,0.69,N,1.27,K,D*3A
$GPGGA,224838.000,4735.5105,N,12222.8052,W,2,08,1.04,-16.9,M,-17.4,M,0000,0000*41
$GPGSA,A,3,12,31,25,02,21,05,29,20,,,,,1.36,1.04,0.87*07
$GPRMC,224838.000,A,4735.5105,N,12222.8052,W,0.69,327.03,240716,,,D*78
$GPVTG,327.03,T,,M,0.69,N,1.28,K,D*39
$GPGGA,224839.000,4735.5108,N,12222.8055,W,2,08,1.04,-16.9,M,-17.4,M,0000,0000*4A
$GPGSA,A,3,12,31,25,02,21,05,29,20,,,,,1.36,1.04,0.87*07
$GPRMC,224839.000,A,4735.5108,N,12222.8055,W,0.85,325.77,240716,,,D*70
$GPVTG,325.77,T,,M,0.85,N,1.57,K,D*32
$GPGGA,224840.000,4735.5110,N,12222.8059,W,2,07,1.10,-16.9,M,-17.4,M,0000,0000*4B
$GPGSA,A,3,12,31,25,02,21,29,20,,,,,,1.41,1.10,0.87*07
$GPGSV,3,1,11,25,66,222,29,29,63,303,37,05,48,123,,02,45,060,24*75
$GPGSV,3,2,11,12,40,168,28,20,23,179,19,31,20,297,29,21,15,239,21*75
$GPGSV,3,3,11,06,04,058,,09,03,027,23,38,,,*73
$GPRMC,224840.000,A,4735.5110,N,12222.8059,W,0.91,324.57,240716,,,D*7D
$GPVTG,324.57,T,,M,0.91,N,1.68,K,D*38
$GPGGA,224841.000,4735.5111,N,12222.8064,W,2,07,1.10,-17.0,M,-17.4,M,0000,0000*4D
$GPGSA,A,3,12,31,25,02,21,29,20,,,,,,1.41,1.10,0.87*07
$GPRMC,224841.000,A,4735.5111,N,12222.8064,W,1.01,315.86,240716,,,D*75
$GPVTG,315.86,T,,M,1.01,N,1.87,K,D*3F
$GPGGA,224842.000,4735.5112,N,12222.8069,W,2,07,1.10,-17.0,M,-17.4,M,0000,0000*40
$GPGSA,A,3,12,31,25,02,21,29,20,,,,,,1.41,1.10,0.87*07
$GPRMC,224842.000,A,4735.5112,N,12222.8069,W,1.06,309.30,240716,,,D*7F
$GPVTG,309.30,T,,M,1.06,N,1.97,K,D*39
$GPGGA,224843.000,4735.5111,N,12222.8074,W,2,07,1.10,-17.0,M,-17.4,M,0000,0000*4E
$GPGSA,A,3,12,31,25,02,21,29,20,,,,,,1.41,1.10,0.87*07
$GPRMC,224843.000,A,4735.5111,N,12222.8074,W,0.90,298.45,240716,,,D*74
$GPVTG,298.45,T,,M,0.90,N,1.67,K,D*33
$GPGGA,224844.000,4735.5111,N,12222.8080,W,2,07,1.10,-17.1,M,-17.4,M,0000,0000*43
$GPGSA,A,3,12,31,25,02,21,29,20,,,,,,1.41,1.10,0.87*07
$GPRMC,224844.000,A,4735.5111,N,12222.8080,W,0.96,298.29,240716,,,D*74
$GPVTG,298.29,T,,M,0.96,N,1.78,K,D*31
$GPGGA,224845.000,4735.5113,N,12222.8081,W,2,07,1.10,-17.1,M,-17.4,M,0000,0000*41
$GPGSA,A,3,12,31,25,02,21,29,20,,,,,,1.41,1.10,0.87*07
$GPGSV,3,1,11,25,66,222,29,29,63,303,37,05,48,123,,02,45,060,24*75
$GPGSV,3,2,11,12,40,168,27,20,23,179,20,31,20,297,29,21,15,239,22*73
$GPGSV,3,3,11,06,04,058,,09,03,027,22,38,,,*72
$GPRMC,224845.000,A,4735.5113,N,12222.8081,W,0.92,301.98,240716,,,D*79
$GPVTG,301.98,T,,M,0.92,N,1.70,K,D*36
$GPGGA,224846.000,4735.5116,N,12222.8075,W,2,07,1.10,-17.0,M,-17.4,M,0000,0000*4D
$GPGSA,A,3,12,31,25,02,21,29,20,,,,,,1.41,1.10,0.87*07
$GPRMC,224846.000,A,4735.5116,N,12222.8075,W,0.67,327.38,240716,,,D*70
$GPVTG,327.38,T,,M,0.67,N,1.25,K,D*32
$GPGGA,224847.000,4735.5118,N,12222.8077,W,2,07,1.10,-17.0,M,-17.4,M,0000,0000*40
$GPGSA,A,3,12,31,25,02,21,29,20,,,,,,1.41,1.10,0.87*07
$GPRMC,224847.000,A,4735.5118,N,12222.8077,W,0.65,325.15,240716,,,D*72
$GPVTG,325.15,T,,M,0.65,N,1.20,K,D*38
$GPGGA,224848.000,4735.5120,N,12222.8076,W,2,07,1.10,-17.0,M,-17.4,M,0000,0000*45
$GPGSA,A,3,12,31,25,02,21,29,20,,,,,,1.41,1.10,0.87*07
$GPRMC,224848.000,A,4735.5120,N,12222.8076,W,0.61,329.05,240716,,,D*7E
$GPVTG,329.05,T,,M,0.61,N,1.13,K,D*31
$GPGGA,224849.000,4735.5120,N,12222.8078,W,2,07,1.10,-17.0,M,-17.4,M,0000,0000*4A
$GPGSA,A,3,12,31,25,02,21,29,20,,,,,,1.41,1.10,0.87*07
$GPRMC,224849.000,A,4735.5120,N,12222.8078,W,0.36,313.44,240716,,,D*7F
$GPVTG,313.44,T,,M,0.36,N,0.67,K,D*3D
$GPGGA,224850.000,4735.5120,N,12222.8079,W,2,08,1.04,-17.0,M,-17.4,M,0000,0000*49
$GPGSA,A,3,12,31,25,02,21,05,29,20,,,,,1.36,1.04,0.87*07
$GPGSV,3,1,11,25,66,222,27,29,63,303,38,05,48,123,21,02,45,060,22*71
$GPGSV,3,2,11,12,40,168,30,20,23,179,22,31,20,297,29,21,15,239,26*73
$GPGSV,3,3,11,06,04,058,,09,03,027,,41,,,*7C
$GPRMC,224850.000,A,4735.5120,N,12222.8079,W,0.30,296.75,240716,,,D*7E
$GPVTG,296.75,T,,M,0.30,N,0.56,K,D*37
$GPGGA,224851.000,4735.5120,N,12222.8079,W,2,08,1.04,-17.0,M,-17.4,M,0000,0000*48
$GPGSA,A,3,12,31,25,02,21,05,29,20,,,,,1.36,1.04,0.87*07
$GPRMC,224851.000,A,4735.5120,N,12222.8079,W,0.30,292.60,240716,,,D*7F
$GPVTG,292.60,T,,M,0.30,N,0.56,K,D*37
$GPGGA,224852.000,4735.5119,N,12222.8079,W,2,08,1.04,-17.0,M,-17.4,M,0000,0000*41
$GPGSA,A,3,12,31,25,02,21,05,29,20,,,,,1.36,1.04,0.87*07
$GPRMC,224852.000,A,4735.5119,N,12222.8079,W,0.31,288.25,240716,,,D*7D
$GPVTG,288.25,T,,M,0.31,N,0.57,K,D*3D
$GPGGA,224853.000,4735.5120,N,12222.8080,W,2,08,1.04,-17.0,M,-17.4,M,0000,0000*4C
$GPGSA,A,3,12,31,25,02,21,05,29,20,,,,,1.36,1.04,0.87*07
$GPRMC,224853.000,A,4735.5120,N,12222.8080,W,0.22,291.88,240716,,,D*7D
$GPVTG,291.88,T,,M,0.22,N,0.42,K,D*34
$GPGGA,224854.000,4735.5120,N,12222.8081,W,2,08,1.04,-17.0,M,-17.4,M,0000,0000*4A
$GPGSA,A,3,12,31,25,02,21,05,29,20,,,,,1.36,1.04,0.87*07
$GPRMC,224854.000,A,4735.5120,N,12222.8081,W,0.14,249.83,240716,,,D*70
$GPVTG,249.83,T,,M,0.14,N,0.26,K,D*3D
$GPGGA,224855.000,4735.5120,N,12222.8081,W,2,08,1.04,-17.0,M,-17.4,M,0000,0000*4B
$GPGSA,A,3,12,31,25,02,21,05,29,20,,,,,1.36,1.04,0.87*07
$GPGSV,3,1,11,25,66,222,26,29,63,303,38,05,48,123,30,02,45,060,23*71
$GPGSV,3,2,11,12,40,168,30,20,23,179,25,31,20,297,28,21,15,239,24*77
$GPGSV,3,3,11,06,04,058,17,09,03,026,,43,,,*79
$GPRMC,224855.000,A,4735.5120,N,12222.8081,W,0.20,267.53,240716,,,D*77
$GPVTG,267.53,T,,M,0.20,N,0.36,K,D*3A
$GPGGA,224856.000,4735.5120,N,12222.8082,W,2,08,1.04,-16.9,M,-17.4,M,0000,0000*43
$GPGSA,A,3,12,31,25,02,21,05,29,20,,,,,1.36,1.04,0.87*07
$GPRMC,224856.000,A,4735.5120,N,12222.8082,W,0.08,235.29,240716,,,D*77
$GPVTG,235.29,T,,M,0.08,N,0.15,K,D*3B
$GPGGA,224857.000,4735.5120,N,12222.8082,W,2,08,1.04,-16.9,M,-17.4,M,0000,0000*42
$GPGSA,A,3,12,31,25,02,21,05,29,20,,,,,1.36,1.04,0.87*07
$GPRMC,224857.000,A,4735.5120,N,12222.8082,W,0.15,220.33,240716,,,D*75
$GPVTG,220.33,T,,M,0.15,N,0.27,K,D*39
$GPGGA,224858.000,4735.5119,N,12222.8082,W,2,08,1.04,-16.9,M,-17.4,M,0000,0000*47
$GPGSA,A,3,12,31,25,02,21,05,29,20,,,,,1.36,1.04,0.87*07
$GPRMC,224858.000,A,4735.5119,N,12222.8082,W,0.37,200.45,240716,,,D*73
$GPVTG,200.45,T,,M,0.37,N,0.69,K,D*30
$GPGGA,224859.000,4735.5118,N,12222.8083,W,2,08,1.04,-16.9,M,-17.4,M,0000,0000*46
$GPGSA,A,3,12,31,25,02,21,05,29,20,,,,,1.36,1.04,0.87*07
$GPRMC,224859.000,A,4735.5118,N,12222.8083,W,0.34,235.64,240716,,,D*74
$GPVTG,235.64,T,,M,0.34,N,0.63,K,D*3C
$GPGGA,224900.000,4735.5118,N,12222.8084,W,2,08,1.04,-16.9,M,-17.4,M,0000,0000*4C
$GPGSA,A,3,12,31,25,02,21,05,29,20,,,,,1.36,1.04,0.87*07
$GPGSV,3,1,11,25,66,222,29,29,63,303,37,05,48,123,30,02,45,060,24*76
$GPGSV,3,2,11,12,40,168,32,20,23,179,26,31,20,297,25,21,15,239,25*7A
$GPGSV,3,3,11,06,04,058,,09,03,026,,45,,,*79
$GPRMC,224900.000,A,4735.5118,N,12222.8084,W,0.36,218.48,240716,,,D*7D
$GPVTG,218.48,T,,M,0.36,N,0.66,K,D*3A
$GPGGA,224901.000,4735.5117,N,12222.8085,W,2,08,1.04,-16.9,M,-17.4,M,0000,0000*43
$GPGSA,A,3,12,31,25,02,21,05,29,20,,,,,1.36,1.04,0.87*07
$GPRMC,224901.000,A,4735.5117,N,12222.8085,W,0.37,202.84,240716,,,D*78
$GPVTG,202.84,T,,M,0.37,N,0.68,K,D*3E
$GPGGA,224902.000,4735.5116,N,12222.8085,W,2,08,1.04,-16.9,M,-17.4,M,0000,0000*41
$GPGSA,A,3,12,31,25,02,21,05,29,20,,,,,1.36,1.04,0.87*07
$GPRMC,224902.000,A,4735.5116,N,12222.8085,W,0.28,211.79,240716,,,D*74
$GPVTG,211.79,T,,M,0.28,N,0.53,K,D*38
$GPGGA,224903.000,4735.5115,N,12222.8086,W,2,08,1.04,-16.9,M,-17.4,M,0000,0000*40
$GPGSA,A,3,12,31,25,02,21,05,29,20,,,,,1.36,1.04,0.87*07
$GPRMC,224903.000,A,4735.5115,N,12222.8086,W,0.19,214.57,240716,,,D*7E
$GPVTG,214.57,T,,M,0.19,N,0.36,K,D*30
$GPGGA,224904.000,4735.5115,N,12222.8087,W,2,08,1.04,-16.9,M,-17.4,M,0000,0000*46
$GPGSA,A,3,12,31,25,02,21,05,29,20,,,,,1.36,1.04,0.87*07
$GPRMC,224904.000,A,4735.5115,N,12222.8087,W,0.29,224.89,240716,,,D*7B
$GPVTG,224.89,T,,M,0.29,N,0.54,K,D*37
$GPGGA,224905.000,4735.5114,N,12222.8087,W,2,08,1.04,-16.9,M,-17.4,M,0000,0000*46
$GPGSA,A,3,12,31,25,02,21,05,29,20,,,,,1.36,1.04,0.87*07
$GPGSV,3,1,11,25,66,222,27,29,63,303,36,05,48,123,31,02,45,060,26*7A
$GPGSV,3,2,11,12,40,168,32,20,23,179,26,31,20,297,25,21,15,239,25*7A
$GPGSV,3,3,11,06,04,058,,09,03,026,,46,,,*7A
$GPRMC,224905.000,A,4735.5114,N,12222.8087,W,0.46,215.07,240716,,,D*76
$GPVTG,215.07,T,,M,0.46,N,0.86,K,D*35
$GPGGA,224906.000,4735.5113,N,12222.8089,W,2,08,1.04,-16.9,M,-17.4,M,0000,0000*4C
$GPGSA,A,3,12,31,25,02,21,05,29,20,,,,,1.36,1.04,0.87*07
$GPRMC,224906.000,A,4735.5113,N,12222.8089,W,0.39,209.43,240716,,,D*79
$GPVTG,209.43,T,,M,0.39,N,0.71,K,D*38
$GPGGA,224907.000,4735.5112,N,12222.8089,W,2,08,1.04,-16.9,M,-17.4,M,0000,0000*4C
$GPGSA,A,3,12,31,25,02,21,05,29,20,,,,,1.36,1.04,0.87*07
$GPRMC,224907.000,A,4735.5112,N,12222.8089,W,0.26,232.78,240716,,,D*77
$GPVTG,232.78,T,,M,0.26,N,0.49,K,D*3D
$GPGGA,224908.000,4735.5112,N,12222.8090,W,2,08,1.04,-16.9,M,-17.4,M,0000,0000*4B
$GPGSA,A,3,12,31,25,02,21,05,29,20,,,,,1.36,1.04,0.87*07
$GPRMC,224908.000,A,4735.5112,N,12222.8090,W,0.23,224.76,240716,,,D*7C
$GPVTG,224.76,T,,M,0.23,N,0.42,K,D*3A
$GPGGA,224909.000,4735.5111,N,12222.8091,W,2,08,1.04,-16.9,M,-17.4,M,0000,0000*48
$GPGSA,A,3,12,31,25,02,21,05,29,20,,,,,1.36,1.04,0.87*07
$GPRMC,224909.000,A,4735.5111,N,12222.8091,W,0.20,198.34,240716,,,D*7E
$GPVTG,198.34,T,,M,0.20,N,0.38,K,D*36
$GPGGA,224910.000,4735.5111,N,12222.8091,W,2,08,1.04,-16.9,M,-17.4,M,0000,0000*40
$GPGSA,A,3,12,31,25,02,21,05,29,20,,,,,1.36,1.04,0.87*07
$GPGSV,3,1,11,25,65,221,27,29,63,303,35,05,48,123,33,02,45,060,28*75
$GPGSV,3,2,11,12,40,168,29,20,23,179,28,31,20,297,22,21,15,239,25*79
$GPGSV,3,3,11,06,04,058,,09,03,026,,46,,,*7A
$GPRMC,224910.000,A,4735.5111,N,12222.8091,W,0.20,163.15,240716,,,D*71
$GPVTG,163.15,T,,M,0.20,N,0.36,K,D*3F
$GPGGA,224911.000,4735.5110,N,12222.8091,W,2,08,1.04,-16.9,M,-17.4,M,0000,0000*40
$GPGSA,A,3,12,31,25,02,21,05,29,20,,,,,1.36,1.04,0.87*07
$GPRMC,224911.000,A,4735.5110,N,12222.8091,W,0.25,162.63,240716,,,D*74
$GPVTG,162.63,T,,M,0.25,N,0.47,K,D*3C
$GPGGA,224912.000,4735.5110,N,12222.8090,W,2,08,1.04,-16.9,M,-17.4,M,0000,0000*42
$GPGSA,A,3,12,31,25,02,21,05,29,20,,,,,1.36,1.04,0.87*07
$GPRMC,224912.000,A,4735.5110,N,12222.8090,W,0.27,185.51,240716,,,D*7C
$GPVTG,185.51,T,,M,0.27,N,0.50,K,D*30
$GPGGA,224913.000,4735.5109,N,12222.8090,W,2,08,1.04,-16.9,M,-17.4,M,0000,0000*4B
$GPGSA,A,3,12,31,25,02,21,05,29,20,,,,,1.36,1.04,0.87*07
$GPRMC,224913.000,A,4735.5109,N,12222.8090,W,0.34,163.19,240716,,,D*73
$GPVTG,163.19,T,,M,0.34,N,0.63,K,D*36
$GPGGA,224914.000,4735.5108,N,12222.8090,W,2,08,1.04,-16.9,M,-17.4,M,0000,0000*4D
$GPGSA,A,3,12,31,25,02,21,05,29,20,,,,,1.36,1.04,0.87*07
$GPRMC,224914.000,A,4735.5108,N,12222.8090,W,0.19,167.02,240716,,,D*74
$GPVTG,167.02,T,,M,0.19,N,0.36,K,D*37
$GPGGA,224915.000,4735.5107,N,12222.8090,W,2,08,1.04,-16.9,M,-17.4,M,0000,0000*43
$GPGSA,A,3,12,31,25,02,21,05,29,20,,,,,1.36,1.04,0.87*07
$GPGSV,3,1,11,25,65,221,28,29,63,303,33,05,48,123,32,02,45,060,26*73
$GPGSV,3,2,11,12,40,168,30,20,23,179,29,31,20,297,26,21,15,239,27*76
$GPGSV,3,3,11,06,04,058,,09,03,026,,47,,,*7B
$GPRMC,224915.000,A,4735.5107,N,12222.8090,W,0.33,171.57,240716,,,D*75
$GPVTG,171.57,T,,M,0.33,N,0.61,K,D*3A
$GPGGA,224916.000,4735.5107,N,12222.8089,W,2,08,1.04,-16.9,M,-17.4,M,0000,0000*48
$GPGSA,A,3,12,31,25,02,21,05,29,20,,,,,1.36,1.04,0.87*07
$GPRMC,224916.000,A,4735.5107,N,12222.8089,W,0.54,175.77,240716,,,D*79
$GPVTG,175.77,T,,M,0.54,N,1.01,K,D*3A
$GPGGA,224917.000,4735.5105,N,12222.8089,W,2,08,1.04,-16.9,M,-17.4,M,0000,0000*4B
$GPGSA,A,3,12,31,25,02,21,05,29,20,,,,,1.36,1.04,0.87*07
$GPRMC,224917.000,A,4735.5105,N,12222.8089,W,0.28,176.53,240716,,,D*74
$GPVTG,176.53,T,,M,0.28,N,0.53,K,D*32
$GPGGA,224918.000,4735.5104,N,12222.8089,W,2,08,1.04,-16.9,M,-17.4,M,0000,0000*45
$GPGSA,A,3,12,31,25,02,21,05,29,20,,,,,1.36,1.04,0.87*07
$GPRMC,224918.000,A,4735.5104,N,12222.8089,W,0.25,161.78,240716,,,D*78
$GPVTG,161.78,T,,M,0.25,N,0.47,K,D*35
$GPGGA,224919.000,4735.5104,N,12222.8089,W,2,08,1.04,-16.9,M,-17.4,M,0000,0000*44
$GPGSA,A,3,12,31,25,02,21,05,29,20,,,,,1.36,1.04,0.87*07
$GPRMC,224919.000,A,4735.5104,N,12222.8089,W,0.42,147.85,240716,,,D*7E
$GPVTG,147.85,T,,M,0.42,N,0.78,K,D*3E
$GPGGA,224920.000,4735.5103,N,12222.8088,W,2,07,1.41,-16.9,M,-17.4,M,0000,0000*46
$GPGSA,A,3,12,31,25,21,05,29,20,,,,,,1.67,1.41,0.90*06
$GPGSV,3,1,11,25,65,221,30,29,63,303,32,05,48,123,34,02,45,060,*79
$GPGSV,3,2,11,12,40,168,21,20,23,179,21,31,20,297,29,21,15,239,26*70
$GPGSV,3,3,11,06,04,058,,09,03,026,,49,,,*75
$GPRMC,224920.000,A,4735.5103,N,12222.8088,W,0.60,142.68,240716,,,D*74
$GPVTG,142.68,T,,M,0.60,N,1.11,K,D*36
$GPGGA,224921.000,4735.5104,N,12222.8085,W,2,07,1.41,-16.9,M,-17.4,M,0000,0000*4D
$GPGSA,A,3,12,31,25,21,05,29,20,,,,,,1.67,1.41,0.90*06
$GPRMC,224921.000,A,4735.5104,N,12222.8085,W,0.23,131.83,240716,,,D*79
$GPVTG,131.83,T,,M,0.23,N,0.43,K,D*36
$GPGGA,224922.000,4735.5105,N,12222.8082,W,2,07,1.41,-16.9,M,-17.4,M,0000,0000*48
$GPGSA,A,3,12,31,25,21,05,29,20,,,,,,1.67,1.41,0.90*06
$GPRMC,224922.000,A,4735.5105,N,12222.8082,W,0.20,118.80,240716,,,D*77
$GPVTG,118.80,T,,M,0.20,N,0.36,K,D*3F
$GPGGA,224923.000,4735.5103,N,12222.8077,W,2,07,1.41,-17.0,M,-17.4,M,0000,0000*4D
$GPGSA,A,3,12,31,25,21,05,29,20,,,,,,1.67,1.41,0.90*06
$GPRMC,224923.000,A,4735.5103,N,12222.8077,W,0.44,126.76,240716,,,D*7C
$GPVTG,126.76,T,,M,0.44,N,0.81,K,D*35
$GPGGA,224924.000,4735.5102,N,12222.8075,W,2,07,1.41,-17.0,M,-17.4,M,0000,0000*49
$GPGSA,A,3,12,31,25,21,05,29,20,,,,,,1.67,1.41,0.90*06
$GPRMC,224924.000,A,4735.5102,N,12222.8075,W,0.45,146.56,240716,,,D*7D
$GPVTG,146.56,T,,M,0.45,N,0.83,K,D*32
$GPGGA,224925.000,4735.5101,N,12222.8074,W,2,07,1.41,-17.0,M,-17.4,M,0000,0000*4A
$GPGSA,A,3,12,31,25,21,05,29,20,,,,,,1.67,1.41,0.90*06
$GPGSV,3,1,11,25,65,221,33,29,63,303,32,05,49,123,34,02,45,060,*7B
$GPGSV,3,2,11,12,40,168,21,20,23,179,27,31,20,297,31,21,15,239,23*7A
$GPGSV,3,3,11,06,04,058,,09,03,026,,50,,,*7D
$GPRMC,224925.000,A,4735.5101,N,12222.8074,W,0.39,132.07,240716,,,D*72
$GPVTG,132.07,T,,M,0.39,N,0.71,K,D*33
$GPGGA,224926.000,4735.5100,N,12222.8073,W,2,08,1.04,-17.0,M,-17.4,M,0000,0000*41
$GPGSA,A,3,12,31,25,02,21,05,29,20,,,,,1.36,1.04,0.87*07
$GPRMC,224926.000,A,4735.5100,N,12222.8073,W,0.49,139.71,240716,,,D*7A
$GPVTG,139.71,T,,M,0.49,N,0.91,K,D*30
$GPGGA,224927.000,4735.5099,N,12222.8072,W,2,08,1.04,-17.0,M,-17.4,M,0000,0000*40
$GPGSA,A,3,12,31,25,02,21,05,29,20,,,,,1.35,1.04,0.87*04
$GPRMC,224927.000,A,4735.5099,N,12222.8072,W,0.37,157.90,240716,,,D*75
$GPVTG,157.90,T,,M,0.37,N,0.68,K,D*38
$GPGGA,224928.000,4735.5098,N,12222.8071,W,2,08,1.04,-17.0,M,-17.4,M,0000,0000*4D
$GPGSA,A,3,12,31,25,02,21,05,29,20,,,,,1.35,1.04,0.87*04
$GPRMC,224928.000,A,4735.5098,N,12222.8071,W,0.28,163.22,240716,,,D*78
$GPVTG,163.22,T,,M,0.28,N,0.52,K,D*31
$GPGGA,224929.000,4735.5097,N,12222.8071,W,2,08,1.04,-17.0,M,-17.4,M,0000,0000*43
$GPGSA,A,3,12,31,25,02,21,05,29,20,,,,,1.36,1.04,0.87*07
$GPRMC,224929.000,A,4735.5097,N,12222.8071,W,0.34,161.28,240716,,,D*73
$GPVTG,161.28,T,,M,0.34,N,0.63,K,D*36
$GPGGA,224930.000,4735.5096,N,12222.8070,W,2,08,1.04,-17.1,M,-17.4,M,0000,0000*4A
$GPGSA,A,3,12,31,25,02,21,05,29,20,,,,,1.36,1.04,0.87*07
$GPGSV,3,1,11,25,65,221,35,29,63,303,33,05,49,123,34,02,45,060,28*76
$GPGSV,3,2,11,12,40,168,20,20,23,179,24,31,20,297,29,21,15,239,19*78
$GPGSV,3,3,11,06,03,058,,09,03,026,,50,,,*7A
$GPRMC,224930.000,A,4735.5096,N,12222.8070,W,0.53,180.18,240716,,,D*76
$GPVTG,180.18,T,,M,0.53,N,0.99,K,D*3E
$GPGGA,224931.000,4735.5095,N,12222.8070,W,2,08,1.04,-17.1,M,-17.4,M,0000,0000*48
$GPGSA,A,3,12,31,25,02,21,05,29,20,,,,,1.36,1.04,0.87*07
$GPRMC,224931.000,A,4735.5095,N,12222.8070,W,0.53,165.42,240716,,,D*70
$GPVTG,165.42,T,,M,0.53,N,0.98,K,D*3B
$GPGGA,224932.000,4735.5094,N,12222.8070,W,2,08,1.04,-17.0,M,-17.4,M,0000,0000*4B
$GPGSA,A,3,12,31,25,02,21,05,29,20,,,,,1.36,1.04,0.87*07
$GPRMC,224932.000,A,4735.5094,N,12222.8070,W,0.34,130.71,240716,,,D*73
$GPVTG,130.71,T,,M,0.34,N,0.63,K,D*3E
$GPGGA,224933.000,4735.5093,N,12222.8069,W,2,08,1.04,-17.1,M,-17.4,M,0000,0000*44
$GPGSA,A,3,12,31,25,02,21,05,29,20,,,,,1.36,1.04,0.87*07
$GPRMC,224933.000,A,4735.5093,N,12222.8069,W,0.27,113.34,240716,,,D*7F
$GPVTG,113.34,T,,M,0.27,N,0.50,K,D*3C
$GPGGA,224934.000,4735.5093,N,12222.8068,W,2,08,1.04,-17.1,M,-17.4,M,0000,0000*42
$GPGSA,A,3,12,31,25,02,21,05,29,20,,,,,1.36,1.04,0.87*07
$GPRMC,224934.000,A,4735.5093,N,12222.8068,W,0.43,134.61,240716,,,D*7E
$GPVTG,134.61,T,,M,0.43,N,0.80,K,D*36
$GPGGA,224935.000,4735.5092,N,12222.8066,W,2,08,1.04,-17.1,M,-17.4,M,0000,0000*4C
$GPGSA,A,3,12,31,25,02,21,05,29,20,,,,,1.36,1.04,0.87*07
$GPGSV,3,1,11,25,65,221,35,29,63,303,34,05,49,123,33,02,45,060,27*79
$GPGSV,3,2,11,12,39,168,20,20,23,179,23,31,20,297,30,21,15,239,17*77
$GPGSV,3,3,11,06,03,058,,09,03,026,,42,,,*79
$GPRMC,224935.000,A,4735.5092,N,12222.8066,W,0.47,131.75,240716,,,D*74
$GPVTG,131.75,T,,M,0.47,N,0.88,K,D*3A
$GPGGA,224936.000,4735.5091,N,12222.8065,W,2,08,1.04,-17.1,M,-17.4,M,0000,0000*4F
$GPGSA,A,3,12,31,25,02,21,05,29,20,,,,,1.36,1.04,0.87*07
$GPRMC,224936.000,A,4735.5091,N,12222.8065,W,0.34,147.63,240716,,,D*75
$GPVTG,147.63,T,,M,0.34,N,0.63,K,D*3D
$GPGGA,224937.000,4735.5090,N,12222.8064,W,2,08,1.04,-17.1,M,-17.4,M,0000,0000*4E
$GPGSA,A,3,12,31,25,02,21,05,29,20,,,,,1.36,1.04,0.87*07
$GPRMC,224937.000,A,4735.5090,N,12222.8064,W,0.41,160.34,240716,,,D*71
$GPVTG,160.34,T,,M,0.41,N,0.75,K,D*3F
$GPGGA,224938.000,4735.5089,N,12222.8064,W,2,08,1.03,-17.1,M,-17.4,M,0000,0000*4E
$GPGSA,A,3,12,31,25,02,21,05,29,20,,,,,1.35,1.03,0.87*03
$GPRMC,224938.000,A,4735.5089,N,12222.8064,W,0.41,186.39,240716,,,D*73
$GPVTG,186.39,T,,M,0.41,N,0.75,K,D*3A
$GPGGA,224939.000,4735.5088,N,12222.8064,W,2,08,1.04,-17.1,M,-17.4,M,0000,0000*49
$GPGSA,A,3,12,31,25,02,21,05,29,20,,,,,1.36,1.04,0.87*07
$GPRMC,224939.000,A,4735.5088,N,12222.8064,W,0.44,184.15,240716,,,D*7A
$GPVTG,184.15,T,,M,0.44,N,0.81,K,D*38
$GPGGA,224940.000,4735.5087,N,12222.8064,W,2,08,1.04,-17.1,M,-17.4,M,0000,0000*48
$GPGSA,A,3,12,31,25,02,21,05,29,20,,,,,1.36,1.04,0.87*07
$GPGSV,3,1,11,25,65,221,32,29,63,303,33,05,49,123,33,02,45,060,20*7E
$GPGSV,3,2,11,12,39,168,19,20,23,179,28,31,20,297,30,21,15,239,23*71
$GPGSV,3,3,11,06,03,058,,09,03,026,,33,,,*7F
$GPRMC,224940.000,A,4735.5087,N,12222.8064,W,0.44,169.05,240716,,,D*79
$GPVTG,169.05,T,,M,0.44,N,0.81,K,D*3A
$GPGGA,224941.000,4735.5086,N,12222.8064,W,2,07,1.41,-17.1,M,-17.4,M,0000,0000*46
$GPGSA,A,3,12,31,25,21,05,29,20,,,,,,1.67,1.41,0.90*06
$GPRMC,224941.000,A,4735.5086,N,12222.8064,W,0.26,147.53,240716,,,D*72
$GPVTG,147.53,T,,M,0.26,N,0.49,K,D*35
$GPGGA,224942.000,4735.5085,N,12222.8063,W,2,07,1.41,-17.1,M,-17.4,M,0000,0000*41
$GPGSA,A,3,12,31,25,21,05,29,20,,,,,,1.67,1.41,0.90*06
$GPRMC,224942.000,A,4735.5085,N,12222.8063,W,0.48,113.62,240716,,,D*7E
$GPVTG,113.62,T,,M,0.48,N,0.90,K,D*3A
$GPGGA,224943.000,4735.5085,N,12222.8061,W,2,07,1.41,-17.1,M,-17.4,M,0000,0000*42
$GPGSA,A,3,12,31,25,21,05,29,20,,,,,,1.67,1.41,0.90*06
$GPRMC,224943.000,A,4735.5085,N,12222.8061,W,0.43,129.93,240716,,,D*71
$GPVTG,129.93,T,,M,0.43,N,0.80,K,D*37
$GPGGA,224944.000,4735.5084,N,12222.8060,W,2,07,1.41,-17.1,M,-17.4,M,0000,0000*45
$GPGSA,A,3,12,31,25,21,05,29,20,,,,,,1.67,1.41,0.90*06
$GPRMC,224944.000,A,4735.5084,N,12222.8060,W,0.53,129.70,240716,,,D*7A
$GPVTG,129.70,T,,M,0.53,N,0.97,K,D*3D
$GPGGA,224945.000,4735.5083,N,12222.8058,W,2,07,1.41,-17.1,M,-17.4,M,0000,0000*48
$GPGSA,A,3,12,31,25,21,05,29,20,,,,,,1.67,1.41,0.90*06
$GPGSV,3,1,11,25,65,220,31,29,63,303,33,05,49,123,35,02,45,060,*78
$GPGSV,3,2,11,12,39,168,20,20,23,179,27,31,20,297,21,21,15,239,23*74
$GPGSV,3,3,11,06,03,058,,09,03,026,,33,,,*7F
$GPRMC,224945.000,A,4735.5083,N,12222.8058,W,0.46,126.33,240716,,,D*7B
$GPVTG,126.33,T,,M,0.46,N,0.85,K,D*32
$GPGGA,224946.000,4735.5082,N,12222.8057,W,2,07,1.41,-17.1,M,-17.4,M,0000,0000*45
$GPGSA,A,3,12,31,25,21,05,29,20,,,,,,1.67,1.41,0.90*06
$GPRMC,224946.000,A,4735.5082,N,12222.8057,W,0.48,121.41,240716,,,D*7A
$GPVTG,121.41,T,,M,0.48,N,0.89,K,D*32
$GPGGA,224947.000,4735.5082,N,12222.8055,W,2,07,1.41,-17.1,M,-17.4,M,0000,0000*46
$GPGSA,A,3,12,31,25,21,05,29,20,,,,,,1.67,1.41,0.90*06
$GPRMC,224947.000,A,4735.5082,N,12222.8055,W,0.32,115.35,240716,,,D*70
$GPVTG,115.35,T,,M,0.32,N,0.59,K,D*36
$GPGGA,224948.000,4735.5081,N,12222.8054,W,2,07,1.41,-17.1,M,-17.4,M,0000,0000*4B
$GPGSA,A,3,12,31,25,21,05,29,20,,,,,,1.67,1.41,0.90*06
$GPRMC,224948.000,A,4735.5081,N,12222.8054,W,0.39,121.72,240716,,,D*72
$GPVTG,121.72,T,,M,0.39,N,0.73,K,D*31
$GPGGA,224949.000,4735.5081,N,12222.8052,W,2,07,1.41,-17.1,M,-17.4,M,0000,0000*4C
$GPGSA,A,3,12,31,25,21,05,29,20,,,,,,1.67,1.41,0.90*06
$GPRMC,224949.000,A,4735.5081,N,12222.8052,W,0.37,120.60,240716,,,D*79
$GPVTG,120.60,T,,M,0.37,N,0.68,K,D*37
$GPGGA,224950.000,4735.5080,N,12222.8051,W,2,07,1.41,-17.1,M,-17.4,M,0000,0000*46
$GPGSA,A,3,12,31,25,21,05,29,20,,,,,,1.67,1.41,0.90*06
$GPGSV,3,1,11,25,65,220,31,29,63,303,32,05,49,123,33,02,45,060,*7F
$GPGSV,3,2,11,12,39,168,21,20,23,179,28,31,20,297,30,21,15,239,25*7C
$GPGSV,3,3,11,06,03,058,,09,03,026,,37,,,*7B
$GPRMC,224950.000,A,4735.5080,N,12222.8051,W,0.33,101.89,240716,,,D*73
$GPVTG,101.89,T,,M,0.33,N,0.61,K,D*3E
$GPGGA,224951.000,4735.5080,N,12222.8050,W,2,07,1.41,-17.1,M,-17.4,M,0000,0000*46
$GPGSA,A,3,12,31,25,21,05,29,20,,,,,,1.67,1.41,0.90*06
$GPRMC,224951.000,A,4735.5080,N,12222.8050,W,0.30,109.55,240716,,,D*79
$GPVTG,109.55,T,,M,0.30,N,0.55,K,D*33
$GPGGA,224952.000,4735.5080,N,12222.8048,W,2,08,1.03,-17.1,M,-17.4,M,0000,0000*45
$GPGSA,A,3,12,31,25,02,21,05,29,20,,,,,1.35,1.03,0.87*03
$GPRMC,224952.000,A,4735.5080,N,12222.8048,W,0.35,153.84,240716,,,D*75
$GPVTG,153.84,T,,M,0.35,N,0.65,K,D*36
$GPGGA,224953.000,4735.5079,N,12222.8048,W,2,08,1.03,-17.1,M,-17.4,M,0000,0000*42
$GPGSA,A,3,12,31,25,02,21,05,29,20,,,,,1.36,1.03,0.87*00
$GPRMC,224953.000,A,4735.5079,N,12222.8048,W,0.46,167.17,240716,,,D*7B
$GPVTG,167.17,T,,M,0.46,N,0.85,K,D*31
$GPGGA,224954.000,4735.5078,N,12222.8047,W,2,08,1.03,-17.1,M,-17.4,M,0000,0000*4B
$GPGSA,A,3,12,31,25,02,21,05,29,20,,,,,1.35,1.03,0.87*03
$GPRMC,224954.000,A,4735.5078,N,12222.8047,W,0.57,128.84,240716,,,D*73
$GPVTG,128.84,T,,M,0.57,N,1.06,K,D*3A
$GPGGA,224955.000,4735.5079,N,12222.8045,W,2,08,1.03,-17.1,M,-17.4,M,0000,0000*49
$GPGSA,A,3,12,31,25,02,21,05,29,20,,,,,1.36,1.03,0.87*00
$GPGSV,3,1,11,25,65,220,31,29,63,303,33,05,49,123,34,02,45,060,25*7E
$GPGSV,3,2,11,12,39,168,20,20,23,179,27,31,19,297,30,21,15,239,23*7E
$GPGSV,3,3,11,06,03,058,,09,03,026,,39,,,*75
$GPRMC,224955.000,A,4735.5079,N,12222.8045,W,0.42,129.72,240716,,,D*7D
$GPVTG,129.72,T,,M,0.42,N,0.79,K,D*3F
$GPGGA,224956.000,4735.5079,N,12222.8044,W,2,07,1.41,-17.0,M,-17.4,M,0000,0000*43
$GPGSA,A,3,12,31,25,21,05,29,20,,,,,,1.67,1.41,0.90*06
$GPRMC,224956.000,A,4735.5079,N,12222.8044,W,0.34,102.23,240716,,,D*73
$GPVTG,102.23,T,,M,0.34,N,0.62,K,D*39
$GPGGA,224957.000,4735.5076,N,12222.8045,W,2,08,1.03,-17.0,M,-17.4,M,0000,0000*45
$GPGSA,A,3,12,31,25,02,21,05,29,20,,,,,1.35,1.03,0.87*03
$GPRMC,224957.000,A,4735.5076,N,12222.8045,W,0.25,92.03,240716,,,D*46
$GPVTG,92.03,T,,M,0.25,N,0.47,K,D*04
$GPGGA,224958.000,4735.5076,N,12222.8041,W,2,08,1.03,-17.0,M,-17.4,M,0000,0000*4E
$GPGSA,A,3,12,31,25,02,21,05,29,20,,,,,1.35,1.03,0.87*03
$GPRMC,224958.000,A,4735.5076,N,12222.8041,W,0.49,89.73,240716,,,D*4A
$GPVTG,89.73,T,,M,0.49,N,0.91,K,D*08
$GPGGA,224959.000,4735.5076,N,12222.8039,W,2,08,1.03,-17.0,M,-17.4,M,0000,0000*40
$GPGSA,A,3,12,31,25,02,21,05,29,20,,,,,1.36,1.03,0.87*00
$GPRMC,224959.000,A,4735.5076,N,12222.8039,W,0.26,78.11,240716,,,D*47
$GPVTG,78.11,T,,M,0.26,N,0.49,K,D*0E
$GPGGA,225000.000,4735.5076,N,12222.8038,W,2,08,1.03,-17.0,M,-17.4,M,0000,0000*45
$GPGSA,A,3,12,31,25,02,21,05,29,20,,,,,1.35,1.03,0.87*03
$GPGSV,3,1,11,25,65,220,28,29,63,303,34,05,49,122,32,02,44,060,30*73
$GPGSV,3,2,11,12,39,168,30,20,23,179,28,31,19,297,23,21,15,239,27*76
$GPGSV,3,3,11,06,03,058,,09,03,026,,44,,,*7F
$GPRMC,225000.000,A,4735.5076,N,12222.8038,W,0.24,77.05,240716,,,D*4A
$GPVTG,77.05,T,,M,0.24,N,0.44,K,D*0B
$GPGGA,225001.000,4735.5076,N,12222.8037,W,2,08,1.03,-17.0,M,-17.4,M,0000,0000*4B
$GPGSA,A,3,12,31,25,02,21,05,29,20,,,,,1.36,1.03,0.87*00
$GPRMC,225001.000,A,4735.5076,N,12222.8037,W,0.27,61.53,240716,,,D*43
$GPVTG,61.53,T,,M,0.27,N,0.50,K,D*09
$GPGGA,225002.000,4735.5076,N,12222.8036,W,2,08,1.03,-17.0,M,-17.4,M,0000,0000*49
$GPGSA,A,3,12,31,25,02,21,05,29,20,,,,,1.35,1.03,0.87*03
$GPRMC,225002.000,A,4735.5076,N,12222.8036,W,0.24,87.91,240716,,,D*44
$GPVTG,87.91,T,,M,0.24,N,0.44,K,D*09
$GPGGA,225003.000,4735.5076,N,12222.8035,W,2,08,1.03,-17.0,M,-17.4,M,0000,0000*4B
$GPGSA,A,3,12,31,25,02,21,05,29,20,,,,,1.35,1.03,0.87*03
$GPRMC,225003.000,A,4735.5076,N,12222.8035,W,0.11,75.41,240716,,,D*40
$GPVTG,75.41,T,,M,0.11,N,0.21,K,D*0C
$GPGGA,225004.000,4735.5076,N,12222.8035,W,2,08,1.03,-17.0,M,-17.4,M,0000,0000*4C
$GPGSA,A,3,12,31,25,02,21,05,29,20,,,,,1.35,1.03,0.87*03
$GPRMC,225004.000,A,4735.5076,N,12222.8035,W,0.16,60.58,240716,,,D*4C
$GPVTG,60.58,T,,M,0.16,N,0.29,K,D*0F
$GPGGA,225005.000,4735.5077,N,12222.8034,W,2,08,1.03,-17.0,M,-17.4,M,0000,0000*4D
$GPGSA,A,3,12,31,25,02,21,05,29,20,,,,,1.35,1.03,0.87*03
$GPGSV,3,1,11,25,65,220,27,29,63,303,36,05,49,122,30,02,44,060,28*75
$GPGSV,3,2,11,12,39,168,29,20,23,179,26,31,19,297,24,21,15,239,24*74
$GPGSV,3,3,11,06,03,058,,09,03,026,,44,,,*7F
$GPRMC,225005.000,A,4735.5077,N,12222.8034,W,0.22,353.15,240716,,,D*70
$GPVTG,353.15,T,,M,0.22,N,0.40,K,D*3D
$GPGGA,225006.000,4735.5077,N,12222.8034,W,2,08,1.12,-17.0,M,-17.4,M,0000,0000*4E
$GPGSA,A,3,12,31,25,02,21,05,29,20,,,,,2.12,1.12,1.81*02
$GPRMC,225006.000,A,4735.5077,N,12222.8034,W,0.18,26.32,240716,,,D*4E
$GPVTG,26.32,T,,M,0.18,N,0.33,K,D*04
$GPGGA,225007.000,4735.5078,N,12222.8034,W,2,08,1.03,-17.0,M,-17.4,M,0000,0000*40
$GPGSA,A,3,12,31,25,02,21,05,29,20,,,,,1.35,1.03,0.87*03
$GPRMC,225007.000,A,4735.5078,N,12222.8034,W,0.25,16.53,240716,,,D*4A
$GPVTG,16.53,T,,M,0.25,N,0.46,K,D*0C
$GPGGA,225008.000,4735.5078,N,12222.8034,W,2,08,1.03,-17.0,M,-17.4,M,0000,0000*4F
$GPGSA,A,3,12,31,25,02,21,05,29,20,,,,,1.35,1.03,0.87*03
$GPRMC,225008.000,A,4735.5078,N,12222.8034,W,0.20,115.18,240716,,,D*7D
$GPVTG,115.18,T,,M,0.20,N,0.38,K,D*3D
$GPGGA,225009.000,4735.5078,N,12222.8033,W,2,08,1.03,-17.0,M,-17.4,M,0000,0000*49
$GPGSA,A,3,12,31,25,02,21,05,29,20,,,,,1.35,1.03,0.87*03
$GPRMC,225009.000,A,4735.5078,N,12222.8033,W,0.43,152.27,240716,,,D*71
$GPVTG,152.27,T,,M,0.43,N,0.80,K,D*34
$GPGGA,225010.000,4735.5077,N,12222.8032,W,2,08,1.03,-17.0,M,-17.4,M,0000,0000*4F
$GPGSA,A,3,12,31,25,02,21,05,29,20,,,,,1.35,1.03,0.87*03
$GPGSV,3,1,11,25,65,220,27,29,63,303,34,05,49,122,31,02,44,060,29*77
$GPGSV,3,2,11,12,39,168,29,20,23,179,28,31,19,297,22,21,15,239,27*7F
$GPGSV,3,3,11,06,03,058,,09,03,026,,40,,,*7B
$GPRMC,225010.000,A,4735.5077,N,12222.8032,W,0.46,142.66,240716,,,D*76
$GPVTG,142.66,T,,M,0.46,N,0.86,K,D*33
$GPGGA,225011.000,4735.5076,N,12222.8031,W,2,08,1.03,-17.0,M,-17.4,M,0000,0000*4C
$GPGSA,A,3,12,31,25,02,21,05,29,20,,,,,1.35,1.03,0.87*03
$GPRMC,225011.000,A,4735.5076,N,12222.8031,W,0.53,153.17,240716,,,D*77
$GPVTG,153.17,T,,M,0.53,N,0.99,K,D*3F
$GPGGA,225012.000,4735.5075,N,12222.8030,W,2,08,1.03,-17.0,M,-17.4,M,0000,0000*4D
$GPGSA,A,3,12,31,25,02,21,05,29,20,,,,,1.35,1.03,0.87*03
$GPRMC,225012.000,A,4735.5075,N,12222.8030,W,0.67,154.61,240716,,,D*77
$GPVTG,154.61,T,,M,0.67,N,1.24,K,D*39
$GPGGA,225013.000,4735.5074,N,12222.8027,W,2,08,1.03,-16.9,M,-17.4,M,0000,0000*43
$GPGSA,A,3,12,31,25,02,21,05,29,20,,,,,1.35,1.03,0.87*03
$GPRMC,225013.000,A,4735.5074,N,12222.8027,W,0.59,151.03,240716,,,D*7D
$GPVTG,151.03,T,,M,0.59,N,1.10,K,D*32
$GPGGA,225014.000,4735.5070,N,12222.8024,W,2,08,1.03,-16.9,M,-17.4,M,0000,0000*43
$GPGSA,A,3,12,31,25,02,21,05,29,20,,,,,1.35,1.03,0.88*0C
$GPRMC,225014.000,A,4735.5070,N,12222.8024,W,0.87,143.76,240716,,,D*7F
$GPVTG,143.76,T,,M,0.87,N,1.62,K,D*35
$GPGGA,225015.000,4735.5071,N,12222.8023,W,2,08,1.03,-16.9,M,-17.4,M,0000,0000*44
$GPGSA,A,3,12,31,25,02,21,05,29,20,,,,,1.35,1.03,0.88*0C
$GPGSV,3,1,11,25,65,220,30,29,63,303,33,05,49,122,33,02,44,060,23*7E
$GPGSV,3,2,11,12,39,168,20,48,34,194,,20,24,179,24,31,19,297,29*7B
$GPGSV,3,3,11,21,15,239,25,06,03,058,,09,03,026,*47
$GPRMC,225015.000,A,4735.5071,N,12222.8023,W,0.60,143.87,240716,,,D*7F
$GPVTG,143.87,T,,M,0.60,N,1.11,K,D*36
$GPGGA,225016.000,4735.5068,N,12222.8021,W,2,07,1.41,-16.9,M,-17.4,M,0000,0000*44
$GPGSA,A,3,12,31,25,21,05,29,20,,,,,,1.67,1.41,0.90*06
$GPRMC,225016.000,A,4735.5068,N,12222.8021,W,0.73,145.27,240716,,,D*78
$GPVTG,145.27,T,,M,0.73,N,1.35,K,D*3E
$GPGGA,225017.000,4735.5065,N,12222.8022,W,2,08,1.03,-16.9,M,-17.4,M,0000,0000*42
$GPGSA,A,3,12,31,25,02,21,05,29,20,,,,,1.36,1.03,0.88*0F
$GPRMC,225017.000,A,4735.5065,N,12222.8022,W,0.76,165.02,240716,,,D*77
$GPVTG,165.02,T,,M,0.76,N,1.40,K,D*3C
$GPGGA,225018.000,4735.5064,N,12222.8023,W,2,07,1.41,-17.0,M,-17.4,M,0000,0000*4C
$GPGSA,A,3,12,31,25,21,05,29,20,,,,,,1.67,1.41,0.90*06
$GPRMC,225018.000,A,4735.5064,N,12222.8023,W,0.69,171.78,240716,,,D*7E
$GPVTG,171.78,T,,M,0.69,N,1.27,K,D*3B
$GPGGA,225019.000,4735.5063,N,12222.8025,W,2,07,1.41,-17.0,M,-17.4,M,0000,0000*4C
$GPGSA,A,3,12,31,25,21,05,29,20,,,,,,1.67,1.41,0.90*06
$GPRMC,225019.000,A,4735.5063,N,12222.8025,W,0.57,193.67,240716,,,D*71
$GPVTG,193.67,T,,M,0.57,N,1.06,K,D*37
$GPGGA,225020.000,4735.5064,N,12222.8025,W,2,07,1.41,-17.0,M,-17.4,M,0000,0000*41
$GPGSA,A,3,12,31,25,21,05,29,20,,,,,,1.67,1.41,0.90*06
$GPGSV,3,1,11,25,65,220,30,29,63,303,33,05,49,122,33,02,44,060,*7F
$GPGSV,3,2,11,12,39,168,20,48,34,194,,20,24,179,22,31,19,297,30*75
$GPGSV,3,3,11,21,15,240,27,06,03,058,,09,03,026,*4B
$GPRMC,225020.000,A,4735.5064,N,12222.8025,W,0.45,204.59,240716,,,D*7F
$GPVTG,204.59,T,,M,0.45,N,0.84,K,D*3F
$GPGGA,225021.000,4735.5066,N,12222.8025,W,2,07,1.41,-17.1,M,-17.4,M,0000,0000*43
$GPGSA,A,3,12,31,25,21,05,29,20,,,,,,1.67,1.41,0.90*06
$GPRMC,225021.000,A,4735.5066,N,12222.8025,W,0.34,239.23,240716,,,D*79
$GPVTG,239.23,T,,M,0.34,N,0.62,K,D*32
$GPGGA,225022.000,4735.5068,N,12222.8021,W,2,07,1.41,-17.1,M,-17.4,M,0000,0000*4A
$GPGSA,A,3,12,31,25,21,05,29,20,,,,,,1.67,1.41,0.90*06
$GPRMC,225022.000,A,4735.5068,N,12222.8021,W,0.04,101.28,240716,,,D*70
$GPVTG,101.28,T,,M,0.04,N,0.07,K,D*31
$GPGGA,225023.000,4735.5068,N,12222.8021,W,2,07,1.41,-17.1,M,-17.4,M,0000,0000*4B
$GPGSA,A,3,12,31,25,21,05,29,20,,,,,,1.67,1.41,0.90*06
$GPRMC,225023.000,A,4735.5068,N,12222.8021,W,0.11,73.15,240716,,,D*4F
$GPVTG,73.15,T,,M,0.11,N,0.20,K,D*0A
$GPGGA,225024.000,4735.5068,N,12222.8020,W,2,07,1.41,-17.1,M,-17.4,M,0000,0000*4D
$GPGSA,A,3,12,31,25,21,05,29,20,,,,,,1.67,1.41,0.90*06
$GPRMC,225024.000,A,4735.5068,N,12222.8020,W,0.34,75.02,240716,,,D*4E
$GPVTG,75.02,T,,M,0.34,N,0.63,K,D*0A
$GPGGA,225025.000,4735.5069,N,12222.8019,W,2,07,1.41,-17.1,M,-17.4,M,0000,0000*47
$GPGSA,A,3,12,31,25,21,05,29,20,,,,,,1.67,1.41,0.90*06
$GPGSV,3,1,11,25,65,220,32,29,64,304,34,05,49,122,34,02,44,060,18*74
$GPGSV,3,2,11,12,39,168,21,48,34,194,26,20,24,179,26,31,19,297,31*75
$GPGSV,3,3,11,21,15,240,27,06,03,058,,09,03,026,*4B
$GPRMC,225025.000,A,4735.5069,N,12222.8019,W,0.34,114.13,240716,,,D*72
$GPVTG,114.13,T,,M,0.34,N,0.63,K,D*3C
$GPGGA,225026.000,4735.5068,N,12222.8017,W,2,07,1.41,-17.1,M,-17.4,M,0000,0000*4B
$GPGSA,A,3,12,31,25,21,05,29,20,,,,,,1.67,1.41,0.90*06
$GPRMC,225026.000,A,4735.5068,N,12222.8017,W,0.39,105.36,240716,,,D*74
$GPVTG,105.36,T,,M,0.39,N,0.73,K,D*37
$GPGGA,225027.000,4735.5068,N,12222.8016,W,2,07,1.41,-17.1,M,-17.4,M,0000,0000*4B
$GPGSA,A,3,12,31,25,21,05,29,20,,,,,,1.67,1.41,0.90*06
$GPRMC,225027.000,A,4735.5068,N,12222.8016,W,0.43,123.64,240716,,,D*7A
$GPVTG,123.64,T,,M,0.43,N,0.79,K,D*33
$GPGGA,225028.000,4735.5067,N,12222.8015,W,2,07,1.41,-17.1,M,-17.4,M,0000,0000*48
$GPGSA,A,3,12,31,25,21,05,29,20,,,,,,1.67,1.41,0.90*06
$GPRMC,225028.000,A,4735.5067,N,12222.8015,W,0.47,124.81,240716,,,D*71
$GPVTG,124.81,T,,M,0.47,N,0.87,K,D*3A
$GPGGA,225029.000,4735.5067,N,12222.8013,W,2,07,1.41,-17.1,M,-17.4,M,0000,0000*4F
$GPGSA,A,3,12,31,25,21,05,29,20,,,,,,1.67,1.41,0.90*06
$GPRMC,225029.000,A,4735.5067,N,12222.8013,W,0.25,146.88,240716,,,D*7F
$GPVTG,146.88,T,,M,0.25,N,0.47,K,D*3F
$GPGGA,225030.000,4735.5066,N,12222.8012,W,2,07,1.41,-17.1,M,-17.4,M,0000,0000*47
$GPGSA,A,3,12,31,25,21,05,29,20,,,,,,1.67,1.41,0.90*06
$GPGSV,3,1,11,25,65,220,35,29,64,304,34,05,49,122,36,02,44,060,*78
$GPGSV,3,2,11,12,39,168,19,48,34,194,29,20,24,179,27,31,19,296,30*70
$GPGSV,3,3,11,21,15,240,21,06,03,058,,09,03,026,*4D
$GPRMC,225030.000,A,4735.5066,N,12222.8012,W,0.27,152.15,240716,,,D*74
$GPVTG,152.15,T,,M,0.27,N,0.50,K,D*3A
$GPGGA,225031.000,4735.5065,N,12222.8012,W,2,07,1.41,-17.1,M,-17.4,M,0000,0000*45
$GPGSA,A,3,12,31,25,21,05,29,20,,,,,,1.67,1.41,0.90*06
$GPRMC,225031.000,A,4735.5065,N,12222.8012,W,0.39,155.40,240716,,,D*7E
$GPVTG,155.40,T,,M,0.39,N,0.71,K,D*31
$GPGGA,225032.000,4735.5064,N,12222.8011,W,2,08,1.03,-17.1,M,-17.4,M,0000,0000*4D
$GPGSA,A,3,12,31,25,02,21,05,29,20,,,,,1.35,1.03,0.88*0C
$GPRMC,225032.000,A,4735.5064,N,12222.8011,W,0.31,158.31,240716,,,D*7C
$GPVTG,158.31,T,,M,0.31,N,0.58,K,D*39
$GPGGA,225033.000,4735.5063,N,12222.8011,W,2,08,1.03,-17.1,M,-17.4,M,0000,0000*4B
$GPGSA,A,3,12,31,25,02,21,05,29,20,,,,,1.35,1.03,0.88*0C
$GPRMC,225033.000,A,4735.5063,N,12222.8011,W,0.37,156.00,240716,,,D*70
$GPVTG,156.00,T,,M,0.37,N,0.69,K,D*31
$GPGGA,225034.000,4735.5063,N,12222.8010,W,2,08,1.03,-17.1,M,-17.4,M,0000,0000*4D
$GPGSA,A,3,12,31,25,02,21,05,29,20,,,,,1.35,1.03,0.88*0C
$GPRMC,225034.000,A,4735.5063,N,12222.8010,W,0.26,118.23,240716,,,D*7D
$GPVTG,118.23,T,,M,0.26,N,0.48,K,D*39
$GPGGA,225035.000,4735.5062,N,12222.8009,W,2,08,1.03,-17.1,M,-17.4,M,0000,0000*45
$GPGSA,A,3,12,31,25,02,21,05,29,20,,,,,1.35,1.03,0.88*0C
$GPGSV,3,1,11,25,65,220,35,29,64,304,34,05,49,122,35,02,44,060,27*7E
$GPGSV,3,2,11,12,39,168,20,48,34,194,26,20,24,179,21,31,19,296,30*73
$GPGSV,3,3,11,21,15,240,19,06,03,058,,09,03,026,*46
$GPRMC,225035.000,A,4735.5062,N,12222.8009,W,0.20,149.19,240716,,,D*7E
$GPVTG,149.19,T,,M,0.20,N,0.37,K,D*3A
$GPGGA,225036.000,4735.5062,N,12222.8009,W,2,08,1.03,-17.1,M,-17.4,M,0000,0000*46
$GPGSA,A,3,12,31,25,02,21,05,29,20,,,,,1.35,1.03,0.88*0C
$GPRMC,225036.000,A,4735.5062,N,12222.8009,W,0.28,120.83,240716,,,D*79
$GPVTG,120.83,T,,M,0.28,N,0.51,K,D*3E
$GPGGA,225037.000,4735.5061,N,12222.8008,W,2,08,1.03,-17.1,M,-17.4,M,0000,0000*45
$GPGSA,A,3,12,31,25,02,21,05,29,20,,,,,1.35,1.03,0.88*0C
$GPRMC,225037.000,A,4735.5061,N,12222.8008,W,0.11,116.36,240716,,,D*7B
$GPVTG,116.36,T,,M,0.11,N,0.20,K,D*39
$GPGGA,225038.000,4735.5061,N,12222.8007,W,2,08,1.03,-17.1,M,-17.4,M,0000,0000*45
$GPGSA,A,3,12,31,25,02,21,05,29,20,,,,,1.35,1.03,0.88*0C
$GPRMC,225038.000,A,4735.5061,N,12222.8007,W,0.19,81.70,240716,,,D*4E
$GPVTG,81.70,T,,M,0.19,N,0.35,K,D*08
$GPGGA,225039.000,4735.5061,N,12222.8006,W,2,08,1.03,-17.1,M,-17.4,M,0000,0000*45
$GPGSA,A,3,12,31,25,02,21,05,29,20,,,,,1.35,1.03,0.88*0C
$GPRMC,225039.000,A,4735.5061,N,12222.8006,W,0.40,94.02,240716,,,D*43
$GPVTG,94.02,T,,M,0.40,N,0.74,K,D*00
$GPGGA,225040.000,4735.5061,N,12222.8005,W,2,08,1.03,-17.1,M,-17.4,M,0000,0000*48
$GPGSA,A,3,12,31,25,02,21,05,29,20,,,,,1.35,1.03,0.88*0C
$GPGSV,3,1,11,25,65,220,36,29,64,304,33,05,49,122,33,02,44,060,28*73
$GPGSV,3,2,11,12,39,168,21,48,34,194,,20,24,179,23,31,19,296,28*7D
$GPGSV,3,3,11,21,15,240,18,06,03,058,,09,03,026,*47
$GPRMC,225040.000,A,4735.5061,N,12222.8005,W,0.33,126.29,240716,,,D*7B
$GPVTG,126.29,T,,M,0.33,N,0.61,K,D*31
$GPGGA,225041.000,4735.5061,N,12222.8004,W,2,08,1.03,-17.1,M,-17.4,M,0000,0000*48
$GPGSA,A,3,12,31,25,02,21,05,29,20,,,,,1.35,1.03,0.88*0C
$GPRMC,225041.000,A,4735.5061,N,12222.8004,W,0.47,105.38,240716,,,D*79
$GPVTG,105.38,T,,M,0.47,N,0.87,K,D*3B
$GPGGA,225042.000,4735.5060,N,12222.8002,W,2,08,1.03,-17.1,M,-17.4,M,0000,0000*4C
$GPGSA,A,3,12,31,25,02,21,05,29,20,,,,,1.35,1.03,0.88*0C
$GPRMC,225042.000,A,4735.5060,N,12222.8002,W,0.44,117.48,240716,,,D*7A
$GPVTG,117.48,T,,M,0.44,N,0.81,K,D*3A
$GPGGA,225043.000,4735.5060,N,12222.8000,W,2,08,1.03,-17.1,M,-17.4,M,0000,0000*4F
$GPGSA,A,3,12,31,25,02,21,05,29,20,,,,,1.35,1.03,0.88*0C
$GPRMC,225043.000,A,4735.5060,N,12222.8000,W,0.67,173.18,240716,,,D*7F
$GPVTG,173.18,T,,M,0.67,N,1.24,K,D*32
$GPGGA,225044.000,4735.5060,N,12222.7998,W,2,08,1.03,-17.2,M,-17.4,M,0000,0000*4C
$GPGSA,A,3,12,31,25,02,21,05,29,20,,,,,1.35,1.03,0.88*0C
$GPRMC,225044.000,A,4735.5060,N,12222.7998,W,0.51,158.20,240716,,,D*78
$GPVTG,158.20,T,,M,0.51,N,0.95,K,D*3E
$GPGGA,225045.000,4735.5060,N,12222.7996,W,2,08,1.03,-17.2,M,-17.4,M,0000,0000*43
$GPGSA,A,3,12,31,25,02,21,05,29,20,,,,,1.35,1.03,0.88*0C
$GPGSV,3,1,11,25,65,220,36,29,64,304,32,05,49,122,33,02,44,060,29*73
$GPGSV,3,2,11,12,39,168,21,48,34,194,31,20,24,179,24,31,19,296,26*76
$GPGSV,3,3,11,21,15,240,20,06,03,058,,09,03,026,*4C
$GPRMC,225045.000,A,4735.5060,N,12222.7996,W,0.37,142.66,240716,,,D*7E
$GPVTG,142.66,T,,M,0.37,N,0.68,K,D*35
$GPGGA,225046.000,4735.5059,N,12222.7996,W,2,08,1.03,-17.2,M,-17.4,M,0000,0000*4A
$GPGSA,A,3,12,31,25,02,21,05,29,20,,,,,1.35,1.03,0.88*0C
$GPRMC,225046.000,A,4735.5059,N,12222.7996,W,0.34,130.61,240716,,,D*76
$GPVTG,130.61,T,,M,0.34,N,0.63,K,D*3F
$GPGGA,225047.000,4735.5058,N,12222.7995,W,2,08,1.03,-17.2,M,-17.4,M,0000,0000*49
$GPGSA,A,3,12,31,25,02,21,05,29,20,,,,,1.35,1.03,0.88*0C
$GPRMC,225047.000,A,4735.5058,N,12222.7995,W,0.30,119.87,240716,,,D*72
$GPVTG,119.87,T,,M,0.30,N,0.56,K,D*3E
$GPGGA,225048.000,4735.5057,N,12222.7994,W,2,08,1.03,-17.2,M,-17.4,M,0000,0000*48
$GPGSA,A,3,12,31,25,02,21,05,29,20,,,,,1.35,1.03,0.88*0C
$GPRMC,225048.000,A,4735.5057,N,12222.7994,W,0.23,147.66,240716,,,D*75
$GPVTG,147.66,T,,M,0.23,N,0.43,K,D*3C
$GPGGA,225049.000,4735.5057,N,12222.7993,W,2,08,1.03,-17.2,M,-17.4,M,0000,0000*4E
$GPGSA,A,3,12,31,25,02,21,05,29,20,,,,,1.35,1.03,0.88*0C
$GPRMC,225049.000,A,4735.5057,N,12222.7993,W,0.24,136.91,240716,,,D*7A
$GPVTG,136.91,T,,M,0.24,N,0.45,K,D*33
$GPGGA,225050.000,4735.5056,N,12222.7992,W,2,08,1.03,-17.2,M,-17.4,M,0000,0000*46
$GPGSA,A,3,12,31,25,02,21,05,29,20,,,,,1.35,1.03,0.88*0C
$GPGSV,3,1,11,25,65,220,34,29,64,304,32,05,49,122,33,02,44,060,28*70
$GPGSV,3,2,11,12,39,168,21,51,33,159,,20,24,179,24,31,19,296,28*74
$GPGSV,3,3,11,21,15,240,20,06,03,058,,09,03,026,*4C
$GPRMC,225050.000,A,4735.5056,N,12222.7992,W,0.16,136.74,240716,,,D*78
$GPVTG,136.74,T,,M,0.16,N,0.30,K,D*3B
$GPGGA,225051.000,4735.5056,N,12222.7992,W,2,08,1.03,-17.2,M,-17.4,M,0000,0000*47
$GPGSA,A,3,12,31,25,02,21,05,29,20,,,,,1.35,1.03,0.88*0C
$GPRMC,225051.000,A,4735.5056,N,12222.7992,W,0.19,107.55,240716,,,D*77
$GPVTG,107.55,T,,M,0.19,N,0.36,K,D*33
$GPGGA,225052.000,4735.5056,N,12222.7991,W,2,08,1.03,-17.2,M,-17.4,M,0000,0000*47
$GPGSA,A,3,12,31,25,02,21,05,29,20,,,,,1.35,1.03,0.88*0C
$GPRMC,225052.000,A,4735.5056,N,12222.7991,W,0.40,91.10,240716,,,D*44
$GPVTG,91.10,T,,M,0.40,N,0.73,K,D*01
$GPGGA,225053.000,4735.5056,N,12222.7989,W,2,08,1.03,-17.2,M,-17.4,M,0000,0000*4F
$GPGSA,A,3,12,31,25,02,21,05,29,20,,,,,1.35,1.03,0.88*0C
$GPRMC,225053.000,A,4735.5056,N,12222.7989,W,0.29,82.69,240716,,,D*4F
$GPVTG,82.69,T,,M,0.29,N,0.54,K,D*07
$GPGGA,225054.000,4735.5056,N,12222.7988,W,2,08,1.03,-17.2,M,-17.4,M,0000,0000*49
$GPGSA,A,3,12,31,25,02,21,05,29,20,,,,,1.35,1.03,0.88*0C
$GPRMC,225054.000,A,4735.5056,N,12222.7988,W,0.35,81.71,240716,,,D*4E
$GPVTG,81.71,T,,M,0.35,N,0.65,K,D*02
$GPGGA,225055.000,4735.5056,N,12222.7987,W,2,08,1.03,-17.2,M,-17.4,M,0000,0000*47
$GPGSA,A,3,12,31,25,02,21,05,29,20,,,,,1.35,1.03,0.88*0C
$GPGSV,3,1,11,25,65,219,35,29,64,304,32,05,49,122,33,02,44,060,27*74
$GPGSV,3,2,11,12,39,168,19,51,33,159,,20,24,179,21,31,19,296,28*7A
$GPGSV,3,3,11,21,16,240,18,06,03,058,,09,03,026,*44
$GPRMC,225055.000,A,4735.5056,N,12222.7987,W,0.47,82.29,240716,,,D*4B
$GPVTG,82.29,T,,M,0.47,N,0.87,K,D*05
$GPGGA,225056.000,4735.5056,N,12222.7985,W,2,08,1.03,-17.2,M,-17.4,M,0000,0000*46
$GPGSA,A,3,12,31,25,02,21,05,29,20,,,,,1.35,1.03,0.88*0C
$GPRMC,225056.000,A,4735.5056,N,12222.7985,W,0.46,81.33,240716,,,D*43
$GPVTG,81.33,T,,M,0.46,N,0.85,K,D*0E
$GPGGA,225057.000,4735.5056,N,12222.7983,W,2,08,1.03,-17.2,M,-17.4,M,0000,0000*41
$GPGSA,A,3,12,31,25,02,21,05,29,20,,,,,1.35,1.03,0.88*0C
$GPRMC,225057.000,A,4735.5056,N,12222.7983,W,0.38,148.15,240716,,,D*7D
$GPVTG,148.15,T,,M,0.38,N,0.70,K,D*3D
$GPGGA,225058.000,4735.5055,N,12222.7982,W,2,08,1.03,-17.2,M,-17.4,M,0000,0000*4C
$GPGSA,A,3,12,31,25,02,21,05,29,20,,,,,1.35,1.03,0.88*0C
$GPRMC,225058.000,A,4735.5055,N,12222.7982,W,0.20,137.02,240716,,,D*77
$GPVTG,137.02,T,,M,0.20,N,0.36,K,D*38
