$GPGGA,002154.000,4735.5768,N,12222.9194,W,1,06,1.32,-9.2,M,-17.4,M,,*7E

$GPGSA,A,3,25,02,29,12,05,06,,,,,,,1.62,1.32,0.94*04

$GPRMC,002154.000,A,4735.5768,N,12222.9194,W,0.36,196.71,260616,,,A*7B

$GPVTG,196.71,T,,M,0.36,N,0.67,K,A*31

$GPGGA,002154.000,4735.5768,N,12222.9194,W,1,06,1.32,-9.2,M,-17.4,M,,*7E
$GPGSA,A,3,25,02,29,12,05,06,,,,,,,1.62,1.32,0.94*04
-9.2,M,-17.4,M,,*7E
$GPRMC,002154.000,A,4735.5768,N,12222.9194,W,0.36,196.71,260616,,,A*7B
E
$GPVTG,196.71,T,,M,0.36,N,0.67,K,A*31
9194,W,0.36,196.71,260616,,,A*7B
E
$GPGGA,002154.000,4735.5768,N,12222.9194,W,1,06,1.32,-9.2,M,-17.4,M,,*7E
$GPGSA,A,3,25,02,29,12,05,06,,,,,,,1.62,1.32,0.94*04
-9.2,M,-17.4,M,,*7E
$GPRMC,002154.000,A,4735.5768,N,12222.9194,W,0.36,196.71,260616,,,A*7B
E
$GPVTG,196.71,T,,M,0.36,N,0.67,K,A*31
9194,W,0.36,196.71,260616,,,A*7B
E
$GPGGA,002155.000,4735.5767,N,12222.9195,W,1,07,1.15,-9.2,M,-17.4,M,,*75

$GPGSA,A,3,25,02,29,31,12,05,06,,,,,,1.45,1.15,0.89*0A

$GPRMC,002155.000,A,4735.5767,N,12222.9195,W,0.19,247.45,260616,,,A*71

$GPVTG,247.45,T,,M,0.19,N,0.35,K,A*33

$GPGGA,002154.000,4735.5768,N,12222.9194,W,1,06,1.32,-9.2,M,-17.4,M,,*7E
$GPGSA,A,3,25,02,29,12,05,06,,,,,,,1.62,1.32,0.94*04
-9.2,M,-17.4,M,,*7E
$GPRMC,002154.000,A,4735.5768,N,12222.9194,W,0.36,196.71,260616,,,A*7B
E
$GPVTG,196.71,T,,M,0.36,N,0.67,K,A*31
9194,W,0.36,196.71,260616,,,A*7B
E
$GPGGA,002155.000,4735.5767,N,12222.9195,W,1,07,1.15,-9.2,M,-17.4,M,,*75
$GPGSA,A,3,25,02,29,31,12,05,06,,,,,,1.45,1.15,0.89*0A
.2,M,-17.4,M,,*75
$GPRMC,002155.000,A,4735.5767,N,12222.9195,W,0.19,247.45,260616,,,A*71
5
$GPVTG,247.45,T,,M,0.19,N,0.35,K,A*33
9195,W,0.19,247.45,260616,,,A*71
5
$GPGGA,002154.000,4735.5768,N,12222.9194,W,1,06,1.32,-9.2,M,-17.4,M,,*7E
$GPGSA,A,3,25,02,29,12,05,06,,,,,,,1.62,1.32,0.94*04
-9.2,M,-17.4,M,,*7E
$GPRMC,002154.000,A,4735.5768,N,12222.9194,W,0.36,196.71,260616,,,A*7B
E
$GPVTG,196.71,T,,M,0.36,N,0.67,K,A*31
9194,W,0.36,196.71,260616,,,A*7B
E
$GPGGA,002156.000,4735.5767,N,12222.9195,W,1,06,1.32,-9.2,M,-17.4,M,,*72

$GPGSA,A,3,25,02,29,12,05,06,,,,,,,1.62,1.32,0.94*04

$GPRMC,002156.000,A,4735.5767,N,12222.9195,W,0.17,188.07,260616,,,A*7A

$GPVTG,188.07,T,,M,0.17,N,0.31,K,A*3F

$GPGGA,002155.000,4735.5767,N,12222.9195,W,1,07,1.15,-9.2,M,-17.4,M,,*75
$GPGSA,A,3,25,02,29,31,12,05,06,,,,,,1.45,1.15,0.89*0A
.2,M,-17.4,M,,*75
$GPRMC,002155.000,A,4735.5767,N,12222.9195,W,0.19,247.45,260616,,,A*71
5
$GPVTG,247.45,T,,M,0.19,N,0.35,K,A*33
9195,W,0.19,247.45,260616,,,A*71
5
$GPGGA,002154.000,4735.5768,N,12222.9194,W,1,06,1.32,-9.2,M,-17.4,M,,*7E
$GPGSA,A,3,25,02,29,12,05,06,,,,,,,1.62,1.32,0.94*04
-9.2,M,-17.4,M,,*7E
$GPRMC,002154.000,A,4735.5768,N,12222.9194,W,0.36,196.71,260616,,,A*7B
E
$GPVTG,196.71,T,,M,0.36,N,0.67,K,A*31
9194,W,0.36,196.71,260616,,,A*7B
E
$GPGGA,002156.000,4735.5767,N,12222.9195,W,1,06,1.32,-9.2,M,-17.4,M,,*72
$GPGSA,A,3,25,02,29,12,05,06,,,,,,,1.62,1.32,0.94*04
-9.2,M,-17.4,M,,*72
$GPRMC,002156.000,A,4735.5767,N,12222.9195,W,0.17,188.07,260616,,,A*7A
2
$GPVTG,188.07,T,,M,0.17,N,0.31,K,A*3F
9195,W,0.17,188.07,260616,,,A*7A
2
$GPGGA,002155.000,4735.5767,N,12222.9195,W,1,07,1.15,-9.2,M,-17.4,M,,*75
$GPGGA,002157.000,4735.5766,N,12222.9196,W,1,07,1.15,-9.2,M,-17.4,M,,*75

$GPGSA,A,3,25,02,29,31,12,05,06,,,,,,1.45,1.15,0.89*0A

$GPGSV,3,1,11,25,71,251,27,02,57,061,38,29,53,293,34,12,52,166,37*76

$GPGSV,3,2,11,05,39,138,39,31,20,307,24,20,13,180,,06,13,054,21*7A

$GPGSV,3,3,11,21,04,234,,09,02,038,,40,,,*7F

$GPRMC,002157.000,A,4735.5766,N,12222.9196,W,0.31,210.77,260616,,,A*78

$GPVTG,210.77,T,,M,0.31,N,0.57,K,A*3E

$GPGSA,A,3,25,02,29,31,12,05,06,,,,,,1.45,1.15,0.89*0A
ˇˇˇˇˇˇˇ
$GPRMC,002155.000,A,4735.5767,N,12222.9195,W,0.19,247.45,260616,,,A*71
$GPVTG,247.45,T,,M,0.19,N,0.35,K,A*33
9195,W,0.19,247.45,260616,,,A*71
$GPGGA,002154.000,4735.5768,N,12222.9194,W,1,06,1.32,-9.2,M,-17.4,M,,*7E
$GPGSA,A,3,25,02,29,12,05,06,,,,,,,1.62,1.32,0.94*04
-9.2,M,-17.4,M,,*7E
$GPRMC,002154.000,A,4735.5768,N,12222.9194,W,0.36,196.71,260616,,,A*7B
E
$GPVTG,196.71,T,,M,0.36,N,0.67,K,A*31
9194,W,0.36,196.71,260616,,,A*7B
E
$GPGGA,002156.000,4735.5767,N,12222.9195,W,1,06,1.32,-9.2,M,-17.4,M,,*72
$GPGSA,A,3,25,02,29,12,05,06,,,,,,,1.62,1.32,0.94*04
-9.2,M,-17.4,M,,*72
$GPRMC,002156.000,A,4735.5767,N,12222.9195,W,0.17,188.07,260616,,,A*7A
2
$GPVTG,188.07,T,,M,0.17,N,0.31,K,A*3F
9195,W,0.17,188.07,260616,,,A*7A
2
$GPGGA,002155.000,4735.5767,N,12222.9195,W,1,07,1.15,-9.2,M,-17.4,M,,*75
$GPGGA,002157.000,4735.5766,N,12222.9196,W,1,07,1.15,-9.2,M,-17.4,M,,*75
$GPGGA,002158.000,4735.5766,N,12222.9196,W,1,06,1.32,-9.2,M,-17.4,M,,*7E

$GPGSA,A,3,25,02,29,12,05,06,,,,,,,1.62,1.32,0.94*04

$GPRMC,002158.000,A,4735.5766,N,12222.9196,W,0.19,310.94,260616,,,A*71

$GPVTG,310.94,T,,M,0.19,N,0.35,K,A*3C

$GPGSA,A,3,25,02,29,31,12,05,06,,,,,,1.45,1.15,0.89*0A
ˇˇˇˇˇˇˇ
$GPGSV,3,1,11,25,71,251,27,02,57,061,38,29,53,293,34,12,52,166,37*76
$GPGSV,3,2,11,05,39,138,39,31,20,307,24,20,13,180,,06,13,054,21*7A
6
$GPGSV,3,3,11,21,04,234,,09,02,038,,40,,,*7F
,180,,06,13,054,21*7A
6
$GPRMC,002157.000,A,4735.5766,N,12222.9196,W,0.31,210.77,260616,,,A*78
$GPVTG,210.77,T,,M,0.31,N,0.57,K,A*3E
9196,W,0.31,210.77,260616,,,A*78
$GPGSA,A,3,25,02,29,31,12,05,06,,,,,,1.45,1.15,0.89*0A
7,260616,,,A*78
$GPRMC,002155.000,A,4735.5767,N,12222.9195,W,0.19,247.45,260616,,,A*71
$GPVTG,247.45,T,,M,0.19,N,0.35,K,A*33
9195,W,0.19,247.45,260616,,,A*71
$GPGGA,002154.000,4735.5768,N,12222.9194,W,1,06,1.32,-9.2,M,-17.4,M,,*7E
$GPGSA,A,3,25,02,29,12,05,06,,,,,,,1.62,1.32,0.94*04
-9.2,M,-17.4,M,,*7E
$GPRMC,002154.000,A,4735.5768,N,12222.9194,W,0.36,196.71,260616,,,A*7B
E
$GPVTG,196.71,T,,M,0.36,N,0.67,K,A*31
9194,W,0.36,196.71,260616,,,A*7B
E
$GPGGA,002156.000,4735.5767,N,12222.9195,W,1,06,1.32,-9.2,M,-17.4,M,,*72
$GPGGA,002159.000,4735.5766,N,12222.9197,W,1,06,1.32,-9.2,M,-17.4,M,,*7E

$GPGSA,A,3,25,02,29,12,05,06,,,,,,,1.62,1.32,0.94*04

$GPRMC,002159.000,A,4735.5766,N,12222.9197,W,0.21,300.26,260616,,,A*72

$GPVTG,300.26,T,,M,0.21,N,0.39,K,A*33

$GPGSA,A,3,25,02,29,12,05,06,,,,,,,1.62,1.32,0.94*04
ˇˇˇˇˇˇˇˇˇ
$GPRMC,002156.000,A,4735.5767,N,12222.9195,W,0.17,188.07,260616,,,A*7A
$GPVTG,188.07,T,,M,0.17,N,0.31,K,A*3F
9195,W,0.17,188.07,260616,,,A*7A
$GPGGA,002155.000,4735.5767,N,12222.9195,W,1,07,1.15,-9.2,M,-17.4,M,,*75
$GPGGA,002157.000,4735.5766,N,12222.9196,W,1,07,1.15,-9.2,M,-17.4,M,,*75
$GPGGA,002158.000,4735.5766,N,12222.9196,W,1,06,1.32,-9.2,M,-17.4,M,,*7E
$GPGSA,A,3,25,02,29,12,05,06,,,,,,,1.62,1.32,0.94*04
-9.2,M,-17.4,M,,*7E
$GPRMC,002158.000,A,4735.5766,N,12222.9196,W,0.19,310.94,260616,,,A*71
E
$GPVTG,310.94,T,,M,0.19,N,0.35,K,A*3C
9196,W,0.19,310.94,260616,,,A*71
E
$GPGSA,A,3,25,02,29,31,12,05,06,,,,,,1.45,1.15,0.89*0A
4,260616,,,A*71
E
$GPGSV,3,1,11,25,71,251,27,02,57,061,38,29,53,293,34,12,52,166,37*76
1
E
$GPGSV,3,2,11,05,39,138,39,31,20,307,24,20,13,180,,06,13,054,21*7A
6
1
E
$GPGSV,3,3,11,21,04,234,,09,02,038,,40,,,*7F
,180,,06,13,054,21*7A
6
1
E
$GPGGA,002200.000,4735.5766,N,12222.9197,W,1,06,1.32,-9.2,M,-17.4,M,,*71

$GPGSA,A,3,25,02,29,12,05,06,,,,,,,1.62,1.32,0.94*04

$GPRMC,002200.000,A,4735.5766,N,12222.9197,W,0.28,343.92,260616,,,A*7C

$GPVTG,343.92,T,,M,0.28,N,0.52,K,A*3F

$GPRMC,002157.000,A,4735.5766,N,12222.9196,W,0.31,210.77,260616,,,A*78
$GPVTG,210.77,T,,M,0.31,N,0.57,K,A*3E
9196,W,0.31,210.77,260616,,,A*78
$GPGSA,A,3,25,02,29,31,12,05,06,,,,,,1.45,1.15,0.89*0A
7,260616,,,A*78
$GPRMC,002155.000,A,4735.5767,N,12222.9195,W,0.19,247.45,260616,,,A*71
$GPVTG,247.45,T,,M,0.19,N,0.35,K,A*33
9195,W,0.19,247.45,260616,,,A*71
$GPGGA,002154.000,4735.5768,N,12222.9194,W,1,06,1.32,-9.2,M,-17.4,M,,*7E
$GPGSA,A,3,25,02,29,12,05,06,,,,,,,1.62,1.32,0.94*04
-9.2,M,-17.4,M,,*7E
$GPRMC,002154.000,A,4735.5768,N,12222.9194,W,0.36,196.71,260616,,,A*7B
E
$GPVTG,196.71,T,,M,0.36,N,0.67,K,A*31
9194,W,0.36,196.71,260616,,,A*7B
E
$GPGGA,002156.000,4735.5767,N,12222.9195,W,1,06,1.32,-9.2,M,-17.4,M,,*72
$GPGGA,002159.000,4735.5766,N,12222.9197,W,1,06,1.32,-9.2,M,-17.4,M,,*7E
$GPGSA,A,3,25,02,29,12,05,06,,,,,,,1.62,1.32,0.94*04
-9.2,M,-17.4,M,,*7E
$GPRMC,002159.000,A,4735.5766,N,12222.9197,W,0.21,300.26,260616,,,A*72
E
$GPVTG,300.26,T,,M,0.21,N,0.39,K,A*33
9197,W,0.21,300.26,260616,,,A*72
E
$GPGGA,002201.000,4735.5767,N,12222.9198,W,1,06,1.32,-9.2,M,-17.4,M,,*7E

$GPGSA,A,3,25,02,29,12,05,06,,,,,,,1.62,1.32,0.94*04

$GPRMC,002201.000,A,4735.5767,N,12222.9198,W,0.21,334.55,260616,,,A*71

$GPVTG,334.55,T,,M,0.21,N,0.40,K,A*3E

$GPGSA,A,3,25,02,29,12,05,06,,,,,,,1.62,1.32,0.94*04
ˇˇˇˇˇˇˇˇˇ
$GPRMC,002156.000,A,4735.5767,N,12222.9195,W,0.17,188.07,260616,,,A*7A
$GPVTG,188.07,T,,M,0.17,N,0.31,K,A*3F
9195,W,0.17,188.07,260616,,,A*7A
$GPGGA,002155.000,4735.5767,N,12222.9195,W,1,07,1.15,-9.2,M,-17.4,M,,*75
$GPGGA,002157.000,4735.5766,N,12222.9196,W,1,07,1.15,-9.2,M,-17.4,M,,*75
$GPGGA,002158.000,4735.5766,N,12222.9196,W,1,06,1.32,-9.2,M,-17.4,M,,*7E
$GPGSA,A,3,25,02,29,12,05,06,,,,,,,1.62,1.32,0.94*04
-9.2,M,-17.4,M,,*7E
$GPRMC,002158.000,A,4735.5766,N,12222.9196,W,0.19,310.94,260616,,,A*71
E
$GPVTG,310.94,T,,M,0.19,N,0.35,K,A*3C
9196,W,0.19,310.94,260616,,,A*71
E
$GPGSA,A,3,25,02,29,31,12,05,06,,,,,,1.45,1.15,0.89*0A
4,260616,,,A*71
E
$GPGSV,3,1,11,25,71,251,27,02,57,061,38,29,53,293,34,12,52,166,37*76
1
E
$GPGSV,3,2,11,05,39,138,39,31,20,307,24,20,13,180,,06,13,054,21*7A
6
1
E
$GPGSV,3,3,11,21,04,234,,09,02,038,,40,,,*7F
,180,,06,13,054,21*7A
6
1
E
$GPGGA,002202.000,4735.5768,N,12222.9198,W,1,07,1.15,-9.2,M,-17.4,M,,*76

$GPGSA,A,3,25,02,29,31,12,05,06,,,,,,1.45,1.15,0.89*0A

$GPGSV,3,1,11,25,71,251,27,02,57,061,38,29,53,293,32,12,52,166,37*70

$GPGSV,3,2,11,05,39,138,37,48,34,194,,31,20,307,28,20,13,180,*79

$GPGSV,3,3,11,06,13,054,18,21,04,234,,09,02,038,*47

$GPRMC,002202.000,A,4735.5768,N,12222.9198,W,0.16,1.52,260616,,,A*7B

$GPVTG,1.52,T,,M,0.16,N,0.29,K,A*37

$GPGGA,002200.000,4735.5766,N,12222.9197,W,1,06,1.32,-9.2,M,-17.4,M,,*71
$GPGSA,A,3,25,02,29,12,05,06,,,,,,,1.62,1.32,0.94*04
-9.2,M,-17.4,M,,*71
$GPRMC,002200.000,A,4735.5766,N,12222.9197,W,0.28,343.92,260616,,,A*7C
1
$GPVTG,343.92,T,,M,0.28,N,0.52,K,A*3F
9197,W,0.28,343.92,260616,,,A*7C
1
$GPRMC,002157.000,A,4735.5766,N,12222.9196,W,0.31,210.77,260616,,,A*78
1
$GPVTG,210.77,T,,M,0.31,N,0.57,K,A*3E
9196,W,0.31,210.77,260616,,,A*78
1
$GPGSA,A,3,25,02,29,31,12,05,06,,,,,,1.45,1.15,0.89*0A
7,260616,,,A*78
1
$GPRMC,002155.000,A,4735.5767,N,12222.9195,W,0.19,247.45,260616,,,A*71
1
$GPVTG,247.45,T,,M,0.19,N,0.35,K,A*33
9195,W,0.19,247.45,260616,,,A*71
1
$GPGGA,002154.000,4735.5768,N,12222.9194,W,1,06,1.32,-9.2,M,-17.4,M,,*7E
$GPGSA,A,3,25,02,29,12,05,06,,,,,,,1.62,1.32,0.94*04
-9.2,M,-17.4,M,,*7E
$GPRMC,002154.000,A,4735.5768,N,12222.9194,W,0.36,196.71,260616,,,A*7B
E
$GPVTG,196.71,T,,M,0.36,N,0.67,K,A*31
9194,W,0.36,196.71,260616,,,A*7B
E
$GPGGA,002203.000,4735.5768,N,12222.9198,W,1,07,1.31,-9.2,M,-17.4,M,,*71

$GPGSA,A,3,25,02,29,31,12,05,06,,,,,,2.32,1.31,1.92*04

$GPRMC,002203.000,A,4735.5768,N,12222.9198,W,0.04,76.25,260616,,,A*49

$GPVTG,76.25,T,,M,0.04,N,0.07,K,A*08

$GPGGA,002156.000,4735.5767,N,12222.9195,W,1,06,1.32,-9.2,M,-17.4,M,,*72
$GPGGA,002159.000,4735.5766,N,12222.9197,W,1,06,1.32,-9.2,M,-17.4,M,,*7E
$GPGSA,A,3,25,02,29,12,05,06,,,,,,,1.62,1.32,0.94*04
-9.2,M,-17.4,M,,*7E
$GPRMC,002159.000,A,4735.5766,N,12222.9197,W,0.21,300.26,260616,,,A*72
E
$GPVTG,300.26,T,,M,0.21,N,0.39,K,A*33
9197,W,0.21,300.26,260616,,,A*72
E
$GPGGA,002201.000,4735.5767,N,12222.9198,W,1,06,1.32,-9.2,M,-17.4,M,,*7E
$GPGSA,A,3,25,02,29,12,05,06,,,,,,,1.62,1.32,0.94*04
-9.2,M,-17.4,M,,*7E
$GPRMC,002201.000,A,4735.5767,N,12222.9198,W,0.21,334.55,260616,,,A*71
E
$GPVTG,334.55,T,,M,0.21,N,0.40,K,A*3E
9198,W,0.21,334.55,260616,,,A*71
E
$GPGSA,A,3,25,02,29,12,05,06,,,,,,,1.62,1.32,0.94*04
.55,260616,,,A*71
E
$GPRMC,002156.000,A,4735.5767,N,12222.9195,W,0.17,188.07,260616,,,A*7A
E
$GPVTG,188.07,T,,M,0.17,N,0.31,K,A*3F
9195,W,0.17,188.07,260616,,,A*7A
E
$GPGGA,002155.000,4735.5767,N,12222.9195,W,1,07,1.15,-9.2,M,-17.4,M,,*75
$GPGGA,002157.000,4735.5766,N,12222.9196,W,1,07,1.15,-9.2,M,-17.4,M,,*75
$GPGGA,002204.000,4735.5768,N,12222.9198,W,1,07,1.15,-9.2,M,-17.4,M,,*70

$GPGSA,A,3,25,02,29,31,12,05,06,,,,,,1.45,1.15,0.89*0A

$GPRMC,002204.000,A,4735.5768,N,12222.9198,W,0.11,353.67,260616,,,A*78

$GPVTG,353.67,T,,M,0.11,N,0.21,K,A*3A

$GPGGA,002158.000,4735.5766,N,12222.9196,W,1,06,1.32,-9.2,M,-17.4,M,,*7E
$GPGSA,A,3,25,02,29,12,05,06,,,,,,,1.62,1.32,0.94*04
-9.2,M,-17.4,M,,*7E
$GPRMC,002158.000,A,4735.5766,N,12222.9196,W,0.19,310.94,260616,,,A*71
E
$GPVTG,310.94,T,,M,0.19,N,0.35,K,A*3C
9196,W,0.19,310.94,260616,,,A*71
E
$GPGSA,A,3,25,02,29,31,12,05,06,,,,,,1.45,1.15,0.89*0A
4,260616,,,A*71
E
$GPGSV,3,1,11,25,71,251,27,02,57,061,38,29,53,293,34,12,52,166,37*76
1
E
$GPGSV,3,2,11,05,39,138,39,31,20,307,24,20,13,180,,06,13,054,21*7A
6
1
E
$GPGSV,3,3,11,21,04,234,,09,02,038,,40,,,*7F
,180,,06,13,054,21*7A
6
1
E
$GPGGA,002202.000,4735.5768,N,12222.9198,W,1,07,1.15,-9.2,M,-17.4,M,,*76
$GPGSA,A,3,25,02,29,31,12,05,06,,,,,,1.45,1.15,0.89*0A
.2,M,-17.4,M,,*76
$GPGSV,3,1,11,25,71,251,27,02,57,061,38,29,53,293,32,12,52,166,37*70
*76
$GPGSV,3,2,11,05,39,138,37,48,34,194,,31,20,307,28,20,13,180,*79
*70
*76
$GPGSV,3,3,11,06,13,054,18,21,04,234,,09,02,038,*47
0,13,180,*79
*70
*76
$GPGGA,002205.000,4735.5768,N,12222.9198,W,1,07,1.31,-9.2,M,-17.4,M,,*77

$GPGSA,A,3,25,02,29,31,12,05,06,,,,,,2.33,1.31,1.93*04

$GPRMC,002205.000,A,4735.5768,N,12222.9198,W,0.19,108.17,260616,,,A*7A

$GPVTG,108.17,T,,M,0.19,N,0.34,K,A*3D

$GPRMC,002202.000,A,4735.5768,N,12222.9198,W,0.16,1.52,260616,,,A*7B
$GPVTG,1.52,T,,M,0.16,N,0.29,K,A*37
2.9198,W,0.16,1.52,260616,,,A*7B
$GPGGA,002200.000,4735.5766,N,12222.9197,W,1,06,1.32,-9.2,M,-17.4,M,,*71
$GPGSA,A,3,25,02,29,12,05,06,,,,,,,1.62,1.32,0.94*04
-9.2,M,-17.4,M,,*71
$GPRMC,002200.000,A,4735.5766,N,12222.9197,W,0.28,343.92,260616,,,A*7C
1
$GPVTG,343.92,T,,M,0.28,N,0.52,K,A*3F
9197,W,0.28,343.92,260616,,,A*7C
1
$GPRMC,002157.000,A,4735.5766,N,12222.9196,W,0.31,210.77,260616,,,A*78
1
$GPVTG,210.77,T,,M,0.31,N,0.57,K,A*3E
9196,W,0.31,210.77,260616,,,A*78
1
$GPGSA,A,3,25,02,29,31,12,05,06,,,,,,1.45,1.15,0.89*0A
7,260616,,,A*78
1
$GPRMC,002155.000,A,4735.5767,N,12222.9195,W,0.19,247.45,260616,,,A*71
1
$GPVTG,247.45,T,,M,0.19,N,0.35,K,A*33
9195,W,0.19,247.45,260616,,,A*71
1
$GPGGA,002154.000,4735.5768,N,12222.9194,W,1,06,1.32,-9.2,M,-17.4,M,,*7E
$GPGSA,A,3,25,02,29,12,05,06,,,,,,,1.62,1.32,0.94*04
-9.2,M,-17.4,M,,*7E
$GPGGA,002206.000,4735.5768,N,12222.9197,W,1,07,1.15,-9.2,M,-17.4,M,,*7D

$GPGSA,A,3,25,02,29,31,12,05,06,,,,,,1.45,1.15,0.89*0A

$GPRMC,002206.000,A,4735.5768,N,12222.9197,W,0.14,83.36,260616,,,A*4A

$GPVTG,83.36,T,,M,0.14,N,0.25,K,A*01

$GPRMC,002154.000,A,4735.5768,N,12222.9194,W,0.36,196.71,260616,,,A*7B
$GPVTG,196.71,T,,M,0.36,N,0.67,K,A*31
9194,W,0.36,196.71,260616,,,A*7B
$GPGGA,002203.000,4735.5768,N,12222.9198,W,1,07,1.31,-9.2,M,-17.4,M,,*71
$GPGSA,A,3,25,02,29,31,12,05,06,,,,,,2.32,1.31,1.92*04
.2,M,-17.4,M,,*71
$GPRMC,002203.000,A,4735.5768,N,12222.9198,W,0.04,76.25,260616,,,A*49
71
$GPVTG,76.25,T,,M,0.04,N,0.07,K,A*08
.9198,W,0.04,76.25,260616,,,A*49
71
$GPGGA,002156.000,4735.5767,N,12222.9195,W,1,06,1.32,-9.2,M,-17.4,M,,*72
$GPGGA,002159.000,4735.5766,N,12222.9197,W,1,06,1.32,-9.2,M,-17.4,M,,*7E
$GPGSA,A,3,25,02,29,12,05,06,,,,,,,1.62,1.32,0.94*04
-9.2,M,-17.4,M,,*7E
$GPRMC,002159.000,A,4735.5766,N,12222.9197,W,0.21,300.26,260616,,,A*72
E
$GPVTG,300.26,T,,M,0.21,N,0.39,K,A*33
9197,W,0.21,300.26,260616,,,A*72
E
$GPGGA,002201.000,4735.5767,N,12222.9198,W,1,06,1.32,-9.2,M,-17.4,M,,*7E
$GPGSA,A,3,25,02,29,12,05,06,,,,,,,1.62,1.32,0.94*04
-9.2,M,-17.4,M,,*7E
$GPRMC,002201.000,A,4735.5767,N,12222.9198,W,0.21,334.55,260616,,,A*71
E
$GPGGA,002207.000,4735.5768,N,12222.9196,W,1,06,1.32,-9.2,M,-17.4,M,,*79

$GPGSA,A,3,25,02,29,12,05,06,,,,,,,1.62,1.32,0.94*04

$GPGSV,3,1,11,25,71,251,23,02,57,061,36,29,53,293,28,12,52,166,35*73

$GPGSV,3,2,11,05,39,138,37,51,33,159,,31,20,307,,20,13,180,*7D

$GPGSV,3,3,11,06,12,054,17,21,04,234,,09,02,038,*49

$GPRMC,002207.000,A,4735.5768,N,12222.9196,W,0.13,82.21,260616,,,A*4A

$GPVTG,82.21,T,,M,0.13,N,0.24,K,A*00

$GPVTG,334.55,T,,M,0.21,N,0.40,K,A*3E
ˇˇˇˇˇˇˇˇˇˇˇˇˇˇˇˇˇˇˇˇˇˇˇˇ
$GPGSA,A,3,25,02,29,12,05,06,,,,,,,1.62,1.32,0.94*04
ˇˇˇˇˇˇˇˇˇ
$GPRMC,002156.000,A,4735.5767,N,12222.9195,W,0.17,188.07,260616,,,A*7A
$GPVTG,188.07,T,,M,0.17,N,0.31,K,A*3F
9195,W,0.17,188.07,260616,,,A*7A
$GPGGA,002155.000,4735.5767,N,12222.9195,W,1,07,1.15,-9.2,M,-17.4,M,,*75
$GPGGA,002157.000,4735.5766,N,12222.9196,W,1,07,1.15,-9.2,M,-17.4,M,,*75
$GPGGA,002204.000,4735.5768,N,12222.9198,W,1,07,1.15,-9.2,M,-17.4,M,,*70
$GPGSA,A,3,25,02,29,31,12,05,06,,,,,,1.45,1.15,0.89*0A
.2,M,-17.4,M,,*70
$GPRMC,002204.000,A,4735.5768,N,12222.9198,W,0.11,353.67,260616,,,A*78
0
$GPVTG,353.67,T,,M,0.11,N,0.21,K,A*3A
9198,W,0.11,353.67,260616,,,A*78
0
$GPGGA,002158.000,4735.5766,N,12222.9196,W,1,06,1.32,-9.2,M,-17.4,M,,*7E
$GPGSA,A,3,25,02,29,12,05,06,,,,,,,1.62,1.32,0.94*04
-9.2,M,-17.4,M,,*7E
$GPRMC,002158.000,A,4735.5766,N,12222.9196,W,0.19,310.94,260616,,,A*71
E
$GPGGA,002208.000,4735.5768,N,12222.9196,W,1,06,1.32,-9.2,M,-17.4,M,,*76

$GPGSA,A,3,25,02,29,12,05,06,,,,,,,1.62,1.32,0.94*04

$GPRMC,002208.000,A,4735.5768,N,12222.9196,W,0.15,29.16,260616,,,A*46

$GPVTG,29.16,T,,M,0.15,N,0.28,K,A*0F

$GPVTG,310.94,T,,M,0.19,N,0.35,K,A*3C
ˇˇˇˇˇˇˇˇˇˇˇˇˇˇˇˇˇˇˇˇˇˇˇˇ
$GPGSA,A,3,25,02,29,31,12,05,06,,,,,,1.45,1.15,0.89*0A
ˇˇˇˇˇˇˇ
$GPGSV,3,1,11,25,71,251,27,02,57,061,38,29,53,293,34,12,52,166,37*76
$GPGSV,3,2,11,05,39,138,39,31,20,307,24,20,13,180,,06,13,054,21*7A
6
$GPGSV,3,3,11,21,04,234,,09,02,038,,40,,,*7F
,180,,06,13,054,21*7A
6
$GPGGA,002202.000,4735.5768,N,12222.9198,W,1,07,1.15,-9.2,M,-17.4,M,,*76
$GPGSA,A,3,25,02,29,31,12,05,06,,,,,,1.45,1.15,0.89*0A
.2,M,-17.4,M,,*76
$GPGSV,3,1,11,25,71,251,27,02,57,061,38,29,53,293,32,12,52,166,37*70
*76
$GPGSV,3,2,11,05,39,138,37,48,34,194,,31,20,307,28,20,13,180,*79
*70
*76
$GPGSV,3,3,11,06,13,054,18,21,04,234,,09,02,038,*47
0,13,180,*79
*70
*76
$GPGGA,002205.000,4735.5768,N,12222.9198,W,1,07,1.31,-9.2,M,-17.4,M,,*77
$GPGSA,A,3,25,02,29,31,12,05,06,,,,,,2.33,1.31,1.93*04
.2,M,-17.4,M,,*77
$GPRMC,002205.000,A,4735.5768,N,12222.9198,W,0.19,108.17,260616,,,A*7A
7
$GPGGA,002209.000,4735.5769,N,12222.9196,W,1,06,1.32,-9.2,M,-17.4,M,,*76

$GPGSA,A,3,25,02,29,12,05,06,,,,,,,1.62,1.32,0.94*04

$GPRMC,002209.000,A,4735.5769,N,12222.9196,W,0.18,104.53,260616,,,A*74

$GPVTG,104.53,T,,M,0.18,N,0.34,K,A*30

$GPVTG,108.17,T,,M,0.19,N,0.34,K,A*3D
ˇˇˇˇˇˇˇˇˇˇˇˇˇˇˇˇˇˇˇˇˇˇˇˇ
$GPRMC,002202.000,A,4735.5768,N,12222.9198,W,0.16,1.52,260616,,,A*7B
$GPVTG,1.52,T,,M,0.16,N,0.29,K,A*37
2.9198,W,0.16,1.52,260616,,,A*7B
$GPGGA,002200.000,4735.5766,N,12222.9197,W,1,06,1.32,-9.2,M,-17.4,M,,*71
$GPGSA,A,3,25,02,29,12,05,06,,,,,,,1.62,1.32,0.94*04
-9.2,M,-17.4,M,,*71
$GPRMC,002200.000,A,4735.5766,N,12222.9197,W,0.28,343.92,260616,,,A*7C
1
$GPVTG,343.92,T,,M,0.28,N,0.52,K,A*3F
9197,W,0.28,343.92,260616,,,A*7C
1
$GPRMC,002157.000,A,4735.5766,N,12222.9196,W,0.31,210.77,260616,,,A*78
◊¯?/cè¿?&ñ‘$GPVTG,210.77,T,,M,0.31,N,0.57,K,A*3E
9196,W,0.31,210.77,260616,,,A*78
◊¯?/cè¿?&ñ‘$GPGSA,A,3,25,02,29,31,12,05,06,,,,,,1.45,1.15,0.89*0A
7,260616,,,A*78
◊¯?/cè¿?&ñ‘$GPRMC,002155.000,A,4735.5767,N,12222.9195,W,0.19,247.45,260616,,,A*71
◊¯?/cè¿?&ñ‘$GPVTG,247.45,T,,M,0.19,N,0.35,K,A*33
9195,W,0.19,247.45,260616,,,A*71
◊¯?/cè¿?&ñ‘$GPGGA,002154.000,4735.5768,N,12222.9194,W,1,06,1.32,-9.2,M,-17.4,M,,*7E
?/cè¿?&ñ‘$GPGGA,002210.000,4735.5769,N,12222.9195,W,1,06,1.32,-9.2,M,-17.4,M,,*7D

$GPGSA,A,3,25,02,29,12,05,06,,,,,,,1.62,1.32,0.94*04

$GPRMC,002210.000,A,4735.5769,N,12222.9195,W,0.09,110.77,260616,,,A*7C

$GPVTG,110.77,T,,M,0.09,N,0.17,K,A*32

$GPGSA,A,3,25,02,29,12,05,06,,,,,,,1.62,1.32,0.94*04
ˇˇˇˇˇˇˇˇˇ
$GPGGA,002206.000,4735.5768,N,12222.9197,W,1,07,1.15,-9.2,M,-17.4,M,,*7D
$GPGSA,A,3,25,02,29,31,12,05,06,,,,,,1.45,1.15,0.89*0A
.2,M,-17.4,M,,*7D
$GPRMC,002206.000,A,4735.5768,N,12222.9197,W,0.14,83.36,260616,,,A*4A
7D
$GPVTG,83.36,T,,M,0.14,N,0.25,K,A*01
.9197,W,0.14,83.36,260616,,,A*4A
7D
$GPRMC,002154.000,A,4735.5768,N,12222.9194,W,0.36,196.71,260616,,,A*7B
D
$GPVTG,196.71,T,,M,0.36,N,0.67,K,A*31
9194,W,0.36,196.71,260616,,,A*7B
D
$GPGGA,002203.000,4735.5768,N,12222.9198,W,1,07,1.31,-9.2,M,-17.4,M,,*71
$GPGSA,A,3,25,02,29,31,12,05,06,,,,,,2.32,1.31,1.92*04
.2,M,-17.4,M,,*71
$GPRMC,002203.000,A,4735.5768,N,12222.9198,W,0.04,76.25,260616,,,A*49
71
$GPVTG,76.25,T,,M,0.04,N,0.07,K,A*08
.9198,W,0.04,76.25,260616,,,A*49
71
$GPGGA,002156.000,4735.5767,N,12222.9195,W,1,06,1.32,-9.2,M,-17.4,M,,*72
$GPGGA,002159.000,4735.5766,N,12222.9197,W,1,06,1.32,-9.2,M,-17.4,M,,*7E
$GPGSA,A,3,25,02,29,12,05,06,,,,,,,1.62,1.32,0.94*04
-9.2,M,-17.4,M,,*7E
$GPGGA,002211.000,4735.5768,N,12222.9194,W,1,07,1.15,-9.2,M,-17.4,M,,*78

$GPGSA,A,3,25,02,29,31,12,05,06,,,,,,1.45,1.15,0.89*0A

$GPRMC,002211.000,A,4735.5768,N,12222.9194,W,0.20,78.80,260616,,,A*41

$GPVTG,78.80,T,,M,0.20,N,0.37,K,A*0C

$GPRMC,002159.000,A,4735.5766,N,12222.9197,W,0.21,300.26,260616,,,A*72
$GPVTG,300.26,T,,M,0.21,N,0.39,K,A*33
9197,W,0.21,300.26,260616,,,A*72
$GPGGA,002201.000,4735.5767,N,12222.9198,W,1,06,1.32,-9.2,M,-17.4,M,,*7E
$GPGSA,A,3,25,02,29,12,05,06,,,,,,,1.62,1.32,0.94*04
-9.2,M,-17.4,M,,*7E
$GPRMC,002201.000,A,4735.5767,N,12222.9198,W,0.21,334.55,260616,,,A*71
E
$GPGGA,002207.000,4735.5768,N,12222.9196,W,1,06,1.32,-9.2,M,-17.4,M,,*79
$GPGSA,A,3,25,02,29,12,05,06,,,,,,,1.62,1.32,0.94*04
-9.2,M,-17.4,M,,*79
$GPGSV,3,1,11,25,71,251,23,02,57,061,36,29,53,293,28,12,52,166,35*73
*79
$GPGSV,3,2,11,05,39,138,37,51,33,159,,31,20,307,,20,13,180,*7D
35*73
*79
$GPGSV,3,3,11,06,12,054,17,21,04,234,,09,02,038,*49
13,180,*7D
35*73
*79
$GPRMC,002207.000,A,4735.5768,N,12222.9196,W,0.13,82.21,260616,,,A*4A
79
$GPVTG,82.21,T,,M,0.13,N,0.24,K,A*00
.9196,W,0.13,82.21,260616,,,A*4A
79
$GPVTG,334.55,T,,M,0.21,N,0.40,K,A*3E
9196,W,0.13,82.21,260616,,,A*4A
79
$GPGGA,002212.000,4735.5769,N,12222.9194,W,1,07,1.15,-9.2,M,-17.4,M,,*7A

$GPGSA,A,3,25,02,29,31,12,05,06,,,,,,1.45,1.15,0.89*0A

$GPGSV,3,1,11,25,71,251,24,02,57,061,37,29,53,293,27,12,52,166,35*7A

$GPGSV,3,2,11,05,39,138,37,51,33,159,,31,20,307,24,20,13,180,*7B

$GPGSV,3,3,11,06,12,054,20,21,04,234,,09,02,038,*4D

$GPRMC,002212.000,A,4735.5769,N,12222.9194,W,0.24,95.58,260616,,,A*41

$GPVTG,95.58,T,,M,0.24,N,0.45,K,A*0B

$GPGSA,A,3,25,02,29,12,05,06,,,,,,,1.62,1.32,0.94*04
ˇˇˇˇˇˇˇˇˇ
$GPRMC,002156.000,A,4735.5767,N,12222.9195,W,0.17,188.07,260616,,,A*7A
$GPVTG,188.07,T,,M,0.17,N,0.31,K,A*3F
9195,W,0.17,188.07,260616,,,A*7A
$GPGGA,002155.000,4735.5767,N,12222.9195,W,1,07,1.15,-9.2,M,-17.4,M,,*75
$GPGGA,002157.000,4735.5766,N,12222.9196,W,1,07,1.15,-9.2,M,-17.4,M,,*75
$GPGGA,002204.000,4735.5768,N,12222.9198,W,1,07,1.15,-9.2,M,-17.4,M,,*70
$GPGSA,A,3,25,02,29,31,12,05,06,,,,,,1.45,1.15,0.89*0A
.2,M,-17.4,M,,*70
$GPRMC,002204.000,A,4735.5768,N,12222.9198,W,0.11,353.67,260616,,,A*78
0
$GPVTG,353.67,T,,M,0.11,N,0.21,K,A*3A
9198,W,0.11,353.67,260616,,,A*78
0
$GPGGA,002158.000,4735.5766,N,12222.9196,W,1,06,1.32,-9.2,M,-17.4,M,,*7E
$GPGSA,A,3,25,02,29,12,05,06,,,,,,,1.62,1.32,0.94*04
-9.2,M,-17.4,M,,*7E
$GPRMC,002158.000,A,4735.5766,N,12222.9196,W,0.19,310.94,260616,,,A*71
E
$GPGGA,002208.000,4735.5768,N,12222.9196,W,1,06,1.32,-9.2,M,-17.4,M,,*76
$GPGGA,002213.000,4735.5768,N,12222.9193,W,1,07,1.15,-9.2,M,-17.4,M,,*7D

$GPGSA,A,3,25,02,29,31,12,05,06,,,,,,1.45,1.15,0.89*0A

$GPRMC,002213.000,A,4735.5768,N,12222.9193,W,0.20,83.45,260616,,,A*49

$GPVTG,83.45,T,,M,0.20,N,0.38,K,A*0E

$GPGSA,A,3,25,02,29,12,05,06,,,,,,,1.62,1.32,0.94*04
ˇˇˇˇˇˇˇˇˇ
$GPRMC,002208.000,A,4735.5768,N,12222.9196,W,0.15,29.16,260616,,,A*46
$GPVTG,29.16,T,,M,0.15,N,0.28,K,A*0F
.9196,W,0.15,29.16,260616,,,A*46
$GPVTG,310.94,T,,M,0.19,N,0.35,K,A*3C
9196,W,0.15,29.16,260616,,,A*46
$GPGSA,A,3,25,02,29,31,12,05,06,,,,,,1.45,1.15,0.89*0A
,260616,,,A*46
$GPGSV,3,1,11,25,71,251,27,02,57,061,38,29,53,293,34,12,52,166,37*76

$GPGSV,3,2,11,05,39,138,39,31,20,307,24,20,13,180,,06,13,054,21*7A
6

$GPGSV,3,3,11,21,04,234,,09,02,038,,40,,,*7F
,180,,06,13,054,21*7A
6

$GPGGA,002202.000,4735.5768,N,12222.9198,W,1,07,1.15,-9.2,M,-17.4,M,,*76
$GPGSA,A,3,25,02,29,31,12,05,06,,,,,,1.45,1.15,0.89*0A
.2,M,-17.4,M,,*76
$GPGSV,3,1,11,25,71,251,27,02,57,061,38,29,53,293,32,12,52,166,37*70
*76
$GPGSV,3,2,11,05,39,138,37,48,34,194,,31,20,307,28,20,13,180,*79
*70
*76
$GPGSV,3,3,11,06,13,054,18,21,04,234,,09,02,038,*47
0,13,180,*79
*70
*76
$GPGGA,002205.000,4735.5768,N,12222.9198,W,1,07,1.31,-9.2,M,-17.4,M,,*77
$GPGGA,002214.000,4735.5769,N,12222.9192,W,1,07,1.15,-9.2,M,-17.4,M,,*7A

$GPGSA,A,3,25,02,29,31,12,05,06,,,,,,1.45,1.15,0.89*0A

$GPRMC,002214.000,A,4735.5769,N,12222.9192,W,0.28,75.27,260616,,,A*4B

$GPVTG,75.27,T,,M,0.28,N,0.52,K,A*07

$GPGSA,A,3,25,02,29,31,12,05,06,,,,,,2.33,1.31,1.93*04
ˇˇˇˇˇˇˇ
$GPRMC,002205.000,A,4735.5768,N,12222.9198,W,0.19,108.17,260616,,,A*7A
$GPGGA,002209.000,4735.5769,N,12222.9196,W,1,06,1.32,-9.2,M,-17.4,M,,*76
$GPGSA,A,3,25,02,29,12,05,06,,,,,,,1.62,1.32,0.94*04
-9.2,M,-17.4,M,,*76
$GPRMC,002209.000,A,4735.5769,N,12222.9196,W,0.18,104.53,260616,,,A*74
6
$GPVTG,104.53,T,,M,0.18,N,0.34,K,A*30
9196,W,0.18,104.53,260616,,,A*74
6
$GPVTG,108.17,T,,M,0.19,N,0.34,K,A*3D
9196,W,0.18,104.53,260616,,,A*74
6
$GPRMC,002202.000,A,4735.5768,N,12222.9198,W,0.16,1.52,260616,,,A*7B
4
6
$GPVTG,1.52,T,,M,0.16,N,0.29,K,A*37
2.9198,W,0.16,1.52,260616,,,A*7B
4
6
$GPGGA,002200.000,4735.5766,N,12222.9197,W,1,06,1.32,-9.2,M,-17.4,M,,*71
$GPGSA,A,3,25,02,29,12,05,06,,,,,,,1.62,1.32,0.94*04
-9.2,M,-17.4,M,,*71
$GPRMC,002200.000,A,4735.5766,N,12222.9197,W,0.28,343.92,260616,,,A*7C
1
$GPVTG,343.92,T,,M,0.28,N,0.52,K,A*3F
9197,W,0.28,343.92,260616,,,A*7C
1
$GPRMC,002157.000,A,4735.5766,N,12222.9196,W,0.31,210.77,260616,,,A*78
1
$GPGGA,002215.000,4735.5769,N,12222.9191,W,1,07,1.15,-9.2,M,-17.4,M,,*78

$GPGSA,A,3,25,02,29,31,12,05,06,,,,,,1.45,1.15,0.89*0A

$GPRMC,002215.000,A,4735.5769,N,12222.9191,W,0.20,98.36,260616,,,A*42

$GPVTG,98.36,T,,M,0.20,N,0.37,K,A*0F

$GPVTG,210.77,T,,M,0.31,N,0.57,K,A*3E
ˇˇˇˇˇˇˇˇˇˇˇˇˇˇˇˇˇˇˇˇˇˇˇˇ
$GPGSA,A,3,25,02,29,31,12,05,06,,,,,,1.45,1.15,0.89*0A
ˇˇˇˇˇˇˇ
$GPRMC,002155.000,A,4735.5767,N,12222.9195,W,0.19,247.45,260616,,,A*71
$GPVTG,247.45,T,,M,0.19,N,0.35,K,A*33
9195,W,0.19,247.45,260616,,,A*71
$GPGGA,002154.000,4735.5768,N,12222.9194,W,1,06,1.32,-9.2,M,-17.4,M,,*7E
¯*p$GPGSA,A,3,25,02,29,12,05,06,,,,,,,1.62,1.32,0.94*04
¯*p$GPVTG,110.77,T,,M,0.09,N,0.17,K,A*32
9195,W,0.09,110.77,260616,,,A*7C
D
ñ¯*p$GPGSA,A002200.000,A,4735.5766,N,12222.9197,W,0.28,343.92,260616,,,A*7C
$GPVTG,343.92,T,,M,0.28,N,0.52,K,A*3F
9197,W,0.28,343.92,260616,,,A*7C
$GPVTG,343.92,T,,M,0.28,N,0.52,K,A*3F
.9197,W,0.28,343.92,260616,,,A*7C
PRMC,002210.000,A,4735.5769,N,12222.9195^C¯*p$GPVTG,$GPVTG,343.92,T,,M,0.28,N,0.52,K,A*3F
.9197,W,0.28,343.92,260616,,,A*7C
PRMC,002210.000,A,4735.5769,N,12222.9195^C¯*p$GPVTG,$GPGGA,002223.000,4735.5764,N,12222.9185,W,1,07,1.15,-9.1,M,-17.4,M,,*76

$GPGSA,A,3,25,02,29,31,12,05,06,,,,,,1.45,1.15,0.89*0A

$GPRMC,002223.000,A,4735.5764,N,12222.9185,W,0.36,136.48,260616,,,A*74

$GPVTG,136.48,T,,M,0.36,N,0.67,K,A*31

$GPGSA,A,3,25,02,29,31,12,05,06,,,,,,1.45,1.15,0.89*0A
1.15,-9.1,M,-17.4,M,,*76
$GPRMC,002223.000,A,4735.5764,N,12222.9185,W,0.36,136.48,260616,,,A*74
4,M,,*76
$GPVTG,136.48,T,,M,0.36,N,0.67,K,A*31
9185,W,0.36,136.48,260616,,,A*74
4,M,,*76
$GPGSA,A,3,25,02,29,31,12,05,06,,,,,,1.45,1.15,0.89*0A
8,260616,,,A*74
4,M,,*76
$GPRMC,002223.000,A,4735.5764,N,12222.9185,W,0.36,136.48,260616,,,A*74
4,M,,*76
$GPVTG,136.48,T,,M,0.36,N,0.67,K,A*31
9185,W,0.36,136.48,260616,,,A*74
4,M,,*76
$GPGSA,A,3,25,02,29,31,12,05,06,,,,,,1.45,1.15,0.89*0A
8,260616,,,A*74
4,M,,*76
$GPGGA,002224.000,4735.5764,N,12222.9184,W,1,07,1.15,-9.1,M,-17.4,M,,*70

$GPGSA,A,3,25,02,29,31,12,05,06,,,,,,1.45,1.15,0.89*0A

$GPRMC,002224.000,A,4735.5764,N,12222.9184,W,0.21,133.66,260616,,,A*7D

$GPVTG,133.66,T,,M,0.21,N,0.38,K,A*34

$GPRMC,002223.000,A,4735.5764,N,12222.9185,W,0.36,136.48,260616,,,A*74
$GPVTG,136.48,T,,M,0.36,N,0.67,K,A*31
9185,W,0.36,136.48,260616,,,A*74
$GPGSA,A,3,25,02,29,31,12,05,06,,,,,,1.45,1.15,0.89*0A
8,260616,,,A*74
$GPGGA,002224.000,4735.5764,N,12222.9184,W,1,07,1.15,-9.1,M,-17.4,M,,*70
$GPGSA,A,3,25,02,29,31,12,05,06,,,,,,1.45,1.15,0.89*0A
.1,M,-17.4,M,,*70
$GPRMC,002224.000,A,4735.5764,N,12222.9184,W,0.21,133.66,260616,,,A*7D
0
$GPVTG,133.66,T,,M,0.21,N,0.38,K,A*34
9184,W,0.21,133.66,260616,,,A*7D
0
$GPRMC,002223.000,A,4735.5764,N,12222.9185,W,0.36,136.48,260616,,,A*74
0
$GPVTG,136.48,T,,M,0.36,N,0.67,K,A*31
9185,W,0.36,136.48,260616,,,A*74
0
$GPGSA,A,3,25,02,29,31,12,05,06,,,,,,1.45,1.15,0.89*0A
8,260616,,,A*74
0
$GPGGA,002224.000,4735.5764,N,12222.9184,W,1,07,1.15,-9.1,M,-17.4,M,,*70
$GPGGA,002225.000,4735.5763,N,12222.9183,W,1,07,1.15,-9.1,M,-17.4,M,,*71

$GPGSA,A,3,25,02,29,31,12,05,06,,,,,,1.45,1.15,0.89*0A

$GPRMC,002225.000,A,4735.5763,N,12222.9183,W,0.17,162.11,260616,,,A*7D

$GPVTG,162.11,T,,M,0.17,N,0.31,K,A*3C

$GPGSA,A,3,25,02,29,31,12,05,06,,,,,,1.45,1.15,0.89*0A
ˇˇˇˇˇˇˇ
$GPRMC,002224.000,A,4735.5764,N,12222.9184,W,0.21,133.66,260616,,,A*7D
$GPVTG,133.66,T,,M,0.21,N,0.38,K,A*34
9184,W,0.21,133.66,260616,,,A*7D
$GPRMC,002223.000,A,4735.5764,N,12222.9185,W,0.36,136.48,260616,,,A*74
$GPVTG,136.48,T,,M,0.36,N,0.67,K,A*31
9185,W,0.36,136.48,260616,,,A*74
$GPGSA,A,3,25,02,29,31,12,05,06,,,,,,1.45,1.15,0.89*0A
8,260616,,,A*74
$GPGGA,002224.000,4735.5764,N,12222.9184,W,1,07,1.15,-9.1,M,-17.4,M,,*70
$GPGGA,002225.000,4735.5763,N,12222.9183,W,1,07,1.15,-9.1,M,-17.4,M,,*71
$GPGSA,A,3,25,02,29,31,12,05,06,,,,,,1.45,1.15,0.89*0A
.1,M,-17.4,M,,*71
$GPRMC,002225.000,A,4735.5763,N,12222.9183,W,0.17,162.11,260616,,,A*7D
1
$GPVTG,162.11,T,,M,0.17,N,0.31,K,A*3C
9183,W,0.17,162.11,260616,,,A*7D
1
$GPGSA,A,3,25,02,29,31,12,05,06,,,,,,1.45,1.15,0.89*0A
1,260616,,,A*7D
1
$GPRMC,002224.000,A,4735.5764,N,12222.9184,W,0.21,133.66,260616,,,A*7D
1
$GPVTG,133.66,T,,M,0.21,N,0.38,K,A*34
9184,W,0.21,133.66,260616,,,A*7D
1
$GPGGA,002226.000,4735.5763,N,12222.9183,W,1,07,1.15,-9.1,M,-17.4,M,,*72

$GPGSA,A,3,25,02,29,31,12,05,06,,,,,,1.45,1.15,0.89*0A

$GPRMC,002226.000,A,4735.5763,N,12222.9183,W,0.17,126.05,260616,,,A*7B

$GPVTG,126.05,T,,M,0.17,N,0.31,K,A*39

$GPRMC,002223.000,A,4735.5764,N,12222.9185,W,0.36,136.48,260616,,,A*74
$GPVTG,136.48,T,,M,0.36,N,0.67,K,A*31
9185,W,0.36,136.48,260616,,,A*74
$GPGSA,A,3,25,02,29,31,12,05,06,,,,,,1.45,1.15,0.89*0A
8,260616,,,A*74
$GPGGA,002224.000,4735.5764,N,12222.9184,W,1,07,1.15,-9.1,M,-17.4,M,,*70
$GPGGA,002225.000,4735.5763,N,12222.9183,W,1,07,1.15,-9.1,M,-17.4,M,,*71
$GPGSA,A,3,25,02,29,31,12,05,06,,,,,,1.45,1.15,0.89*0A
.1,M,-17.4,M,,*71
$GPRMC,002225.000,A,4735.5763,N,12222.9183,W,0.17,162.11,260616,,,A*7D
1
$GPVTG,162.11,T,,M,0.17,N,0.31,K,A*3C
9183,W,0.17,162.11,260616,,,A*7D
1
$GPGSA,A,3,25,02,29,31,12,05,06,,,,,,1.45,1.15,0.89*0A
1,260616,,,A*7D
1
$GPRMC,002224.000,A,4735.5764,N,12222.9184,W,0.21,133.66,260616,,,A*7D
1
$GPVTG,133.66,T,,M,0.21,N,0.38,K,A*34
9184,W,0.21,133.66,260616,,,A*7D
1
$GPGGA,002226.000,4735.5763,N,12222.9183,W,1,07,1.15,-9.1,M,-17.4,M,,*72
$GPGGA,002227.000,4735.5762,N,12222.9182,W,1,07,1.15,-9.1,M,-17.4,M,,*73

$GPGSA,A,3,25,02,29,31,12,05,06,,,,,,1.45,1.15,0.89*0A

$GPGSV,3,1,11,25,71,250,27,02,57,061,35,29,53,293,32,12,52,166,34*7F

$GPGSV,3,2,11,05,39,138,36,51,33,159,,31,20,307,28,20,13,180,*76

$GPGSV,3,3,11,06,12,054,19,21,04,234,,09,02,038,*47

$GPRMC,002227.000,A,4735.5762,N,12222.9182,W,0.29,143.42,260616,,,A*77

$GPVTG,143.42,T,,M,0.29,N,0.54,K,A*37

$GPGSA,A,3,25,02,29,31,12,05,06,,,,,,1.45,1.15,0.89*0A
ˇˇˇˇˇˇˇ
$GPRMC,002226.000,A,4735.5763,N,12222.9183,W,0.17,126.05,260616,,,A*7B
$GPVTG,126.05,T,,M,0.17,N,0.31,K,A*39
9183,W,0.17,126.05,260616,,,A*7B
$GPRMC,002223.000,A,4735.5764,N,12222.9185,W,0.36,136.48,260616,,,A*74
$GPVTG,136.48,T,,M,0.36,N,0.67,K,A*31
9185,W,0.36,136.48,260616,,,A*74
$GPGSA,A,3,25,02,29,31,12,05,06,,,,,,1.45,1.15,0.89*0A
8,260616,,,A*74
$GPGGA,002224.000,4735.5764,N,12222.9184,W,1,07,1.15,-9.1,M,-17.4,M,,*70
$GPGGA,002225.000,4735.5763,N,12222.9183,W,1,07,1.15,-9.1,M,-17.4,M,,*71
çÂAt?≥Î·\7$GPGSA,A,3,25,02,29,31,12,05,06,,,,,,1.45,1.15,0.89*0A
.1,M,-17.4,M,,*71
çÂAt?≥Î·\7$GPRMC,002225.000,A,4735.5763,N,12222.9183,W,0.17,162.11,260616,,,A*7D
1
çÂAt?≥Î·\7$GPVTG,162.11,T,,M,0.17,N,0.31,K,A*3C
9183,W,0.17,162.11,260616,,,A*7D
1
çÂAt?≥Î·\7$GPGSA,A,3,25,02,29,31,12,05,06,,,,,,1.45,1.15,0.89*0A
1,260616,,,A*7D
1
çÂAt?≥Î·\7$GPRMC,002224.000,A,4735.5764,N,12222.9184,W,0.21,133.66,260616,,,A*7D
1
çÂAt?≥Î·\7$GPVTG,133.66,T,,M,0.21,N,0.38,K,A*34
9184,W,0.21,133.66,260616,,,A*7D
1
çÂAt?≥Î·\7$GPGGA,002228.000,4735.5762,N,12222.9182,W,1,07,1.15,-9.1,M,-17.4,M,,*7C

$GPGSA,A,3,25,02,29,31,12,05,06,,,,,,1.45,1.15,0.89*0A

$GPRMC,002228.000,A,4735.5762,N,12222.9182,W,0.17,326.14,260616,,,A*77

$GPVTG,326.14,T,,M,0.17,N,0.31,K,A*3B

$GPGGA,002226.000,4735.5763,N,12222.9183,W,1,07,1.15,-9.1,M,-17.4,M,,*72
$GPGGA,002227.000,4735.5762,N,12222.9182,W,1,07,1.15,-9.1,M,-17.4,M,,*73
$GPGSA,A,3,25,02,29,31,12,05,06,,,,,,1.45,1.15,0.89*0A
.1,M,-17.4,M,,*73
$GPGSV,3,1,11,25,71,250,27,02,57,061,35,29,53,293,32,12,52,166,34*7F
*73
$GPGSV,3,2,11,05,39,138,36,51,33,159,,31,20,307,28,20,13,180,*76
*7F
*73
$GPGSV,3,3,11,06,12,054,19,21,04,234,,09,02,038,*47
0,13,180,*76
*7F
*73
$GPRMC,002227.000,A,4735.5762,N,12222.9182,W,0.29,143.42,260616,,,A*77
3
$GPVTG,143.42,T,,M,0.29,N,0.54,K,A*37
9182,W,0.29,143.42,260616,,,A*77
3
$GPGSA,A,3,25,02,29,31,12,05,06,,,,,,1.45,1.15,0.89*0A
2,260616,,,A*77
3
$GPRMC,002226.000,A,4735.5763,N,12222.9183,W,0.17,126.05,260616,,,A*7B
3
$GPVTG,126.05,T,,M,0.17,N,0.31,K,A*39
9183,W,0.17,126.05,260616,,,A*7B
3
$GPRMC,002223.000,A,4735.5764,N,12222.9185,W,0.36,136.48,260616,,,A*74
3
$GPVTG,136.48,T,,M,0.36,N,0.67,K,A*31
9185,W,0.36,136.48,260616,,,A*74
3
$GPGSA,A,3,25,02,29,31,12,05,06,,,,,,1.45,1.15,0.89*0A
8,260616,,,A*74
3
$GPGGA,002229.000,4735.5762,N,12222.9182,W,1,07,1.15,-9.1,M,-17.4,M,,*7D

$GPGSA,A,3,25,02,29,31,12,05,06,,,,,,1.45,1.15,0.89*0A

$GPRMC,002229.000,A,4735.5762,N,12222.9182,W,0.05,273.25,260616,,,A*76

$GPVTG,273.25,T,,M,0.05,N,0.09,K,A*30

$GPGGA,002224.000,4735.5764,N,12222.9184,W,1,07,1.15,-9.1,M,-17.4,M,,*70
$GPGGA,002225.000,4735.5763,N,12222.9183,W,1,07,1.15,-9.1,M,-17.4,M,,*71
$GPGSA,A,3,25,02,29,31,12,05,06,,,,,,1.45,1.15,0.89*0A
.1,M,-17.4,M,,*71
$GPRMC,002225.000,A,4735.5763,N,12222.9183,W,0.17,162.11,260616,,,A*7D
1
$GPVTG,162.11,T,,M,0.17,N,0.31,K,A*3C
9183,W,0.17,162.11,260616,,,A*7D
1
$GPGSA,A,3,25,02,29,31,12,05,06,,,,,,1.45,1.15,0.89*0A
1,260616,,,A*7D
1
$GPRMC,002224.000,A,4735.5764,N,12222.9184,W,0.21,133.66,260616,,,A*7D
1
$GPVTG,133.66,T,,M,0.21,N,0.38,K,A*34
9184,W,0.21,133.66,260616,,,A*7D
1
$GPGGA,002228.000,4735.5762,N,12222.9182,W,1,07,1.15,-9.1,M,-17.4,M,,*7C
$GPGSA,A,3,25,02,29,31,12,05,06,,,,,,1.45,1.15,0.89*0A
.1,M,-17.4,M,,*7C
$GPRMC,002228.000,A,4735.5762,N,12222.9182,W,0.17,326.14,260616,,,A*77
C
$GPGGA,002230.000,4735.5762,N,12222.9182,W,1,07,1.15,-9.1,M,-17.4,M,,*75

$GPGSA,A,3,25,02,29,31,12,05,06,,,,,,1.45,1.15,0.89*0A

$GPRMC,002230.000,A,4735.5762,N,12222.9182,W,0.33,227.31,260616,,,A*7F

$GPVTG,227.31,T,,M,0.33,N,0.62,K,A*3C

$GPVTG,326.14,T,,M,0.17,N,0.31,K,A*3B
ˇˇˇˇˇˇˇˇˇˇˇˇˇˇˇˇˇˇˇˇˇˇˇˇ
$GPGGA,002226.000,4735.5763,N,12222.9183,W,1,07,1.15,-9.1,M,-17.4,M,,*72
$GPGGA,002227.000,4735.5762,N,12222.9182,W,1,07,1.15,-9.1,M,-17.4,M,,*73
$GPGSA,A,3,25,02,29,31,12,05,06,,,,,,1.45,1.15,0.89*0A
.1,M,-17.4,M,,*73
$GPGSV,3,1,11,25,71,250,27,02,57,061,35,29,53,293,32,12,52,166,34*7F
*73
$GPGSV,3,2,11,05,39,138,36,51,33,159,,31,20,307,28,20,13,180,*76
*7F
*73
$GPGSV,3,3,11,06,12,054,19,21,04,234,,09,02,038,*47
0,13,180,*76
*7F
*73
$GPRMC,002227.000,A,4735.5762,N,12222.9182,W,0.29,143.42,260616,,,A*77
3
$GPVTG,143.42,T,,M,0.29,N,0.54,K,A*37
9182,W,0.29,143.42,260616,,,A*77
3
$GPGSA,A,3,25,02,29,31,12,05,06,,,,,,1.45,1.15,0.89*0A
2,260616,,,A*77
3
$GPRMC,002226.000,A,4735.5763,N,12222.9183,W,0.17,126.05,260616,,,A*7B
3
$GPVTG,126.05,T,,M,0.17,N,0.31,K,A*39
9183,W,0.17,126.05,260616,,,A*7B
3
$GPRMC,002223.000,A,4735.5764,N,12222.9185,W,0.36,136.48,260616,,,A*74
3
$GPVTG,136.48,T,,M,0.36,N,0.67,K,A*31
9185,W,0.36,136.48,260616,,,A*74
3
$GPGGA,002231.000,4735.5762,N,12222.9183,W,1,07,1.15,-9.1,M,-17.4,M,,*75

$GPGSA,A,3,25,02,29,31,12,05,06,,,,,,1.45,1.15,0.89*0A

$GPRMC,002231.000,A,4735.5762,N,12222.9183,W,0.13,231.90,260616,,,A*71

$GPVTG,231.90,T,,M,0.13,N,0.23,K,A*37

$GPGSA,A,3,25,02,29,31,12,05,06,,,,,,1.45,1.15,0.89*0A
ˇˇˇˇˇˇˇ
$GPGGA,002229.000,4735.5762,N,12222.9182,W,1,07,1.15,-9.1,M,-17.4,M,,*7D
$GPGSA,A,3,25,02,29,31,12,05,06,,,,,,1.45,1.15,0.89*0A
.1,M,-17.4,M,,*7D
$GPRMC,002229.000,A,4735.5762,N,12222.9182,W,0.05,273.25,260616,,,A*76
D
$GPVTG,273.25,T,,M,0.05,N,0.09,K,A*30
9182,W,0.05,273.25,260616,,,A*76
D
$GPGGA,002224.000,4735.5764,N,12222.9184,W,1,07,1.15,-9.1,M,-17.4,M,,*70
$GPGGA,002225.000,4735.5763,N,12222.9183,W,1,07,1.15,-9.1,M,-17.4,M,,*71
$GPGSA,A,3,25,02,29,31,12,05,06,,,,,,1.45,1.15,0.89*0A
.1,M,-17.4,M,,*71
$GPRMC,002225.000,A,4735.5763,N,12222.9183,W,0.17,162.11,260616,,,A*7D
1
$GPVTG,162.11,T,,M,0.17,N,0.31,K,A*3C
9183,W,0.17,162.11,260616,,,A*7D
1
$GPGSA,A,3,25,02,29,31,12,05,06,,,,,,1.45,1.15,0.89*0A
1,260616,,,A*7D
1
$GPRMC,002224.000,A,4735.5764,N,12222.9184,W,0.21,133.66,260616,,,A*7D
1
$GPVTG,133.66,T,,M,0.21,N,0.38,K,A*34
9184,W,0.21,133.66,260616,,,A*7D
1
$GPGGA,002232.000,4735.5761,N,12222.9183,W,1,07,1.15,-9.1,M,-17.4,M,,*75

$GPGSA,A,3,25,02,29,31,12,05,06,,,,,,1.45,1.15,0.89*0A

$GPGSV,3,1,11,25,71,250,28,02,57,061,37,29,53,293,32,12,52,166,36*70

$GPGSV,3,2,11,05,39,138,38,51,33,159,,31,20,307,28,20,13,180,*78

$GPGSV,3,3,11,06,12,054,19,21,04,234,,09,02,038,*47

$GPRMC,002232.000,A,4735.5761,N,12222.9183,W,0.20,180.27,260616,,,A*74

$GPVTG,180.27,T,,M,0.20,N,0.37,K,A*37

$GPGGA,002228.000,4735.5762,N,12222.9182,W,1,07,1.15,-9.1,M,-17.4,M,,*7C
$GPGSA,A,3,25,02,29,31,12,05,06,,,,,,1.45,1.15,0.89*0A
.1,M,-17.4,M,,*7C
$GPRMC,002228.000,A,4735.5762,N,12222.9182,W,0.17,326.14,260616,,,A*77
C
$GPGGA,002230.000,4735.5762,N,12222.9182,W,1,07,1.15,-9.1,M,-17.4,M,,*75
$GPGSA,A,3,25,02,29,31,12,05,06,,,,,,1.45,1.15,0.89*0A
.1,M,-17.4,M,,*75
$GPRMC,002230.000,A,4735.5762,N,12222.9182,W,0.33,227.31,260616,,,A*7F
5
$GPVTG,227.31,T,,M,0.33,N,0.62,K,A*3C
9182,W,0.33,227.31,260616,,,A*7F
5
$GPVTG,326.14,T,,M,0.17,N,0.31,K,A*3B
9182,W,0.33,227.31,260616,,,A*7F
5
$GPGGA,002226.000,4735.5763,N,12222.9183,W,1,07,1.15,-9.1,M,-17.4,M,,*72
$GPGGA,002227.000,4735.5762,N,12222.9182,W,1,07,1.15,-9.1,M,-17.4,M,,*73
$GPGSA,A,3,25,02,29,31,12,05,06,,,,,,1.45,1.15,0.89*0A
.1,M,-17.4,M,,*73
$GPGSV,3,1,11,25,71,250,27,02,57,061,35,29,53,293,32,12,52,166,34*7F
*73
$GPGSV,3,2,11,05,39,138,36,51,33,159,,31,20,307,28,20,13,180,*76
*7F
*73
$GPGGA,002233.000,4735.5761,N,12222.9183,W,1,07,1.15,-9.1,M,-17.4,M,,*74

$GPGSA,A,3,25,02,29,31,12,05,06,,,,,,1.45,1.15,0.89*0A

$GPRMC,002233.000,A,4735.5761,N,12222.9183,W,0.29,120.25,260616,,,A*74

$GPVTG,120.25,T,,M,0.29,N,0.53,K,A*34

$GPGSV,3,3,11,06,12,054,19,21,04,234,,09,02,038,*47
ˇˇˇˇˇˇˇˇˇˇ
$GPRMC,002227.000,A,4735.5762,N,12222.9182,W,0.29,143.42,260616,,,A*77
$GPVTG,143.42,T,,M,0.29,N,0.54,K,A*37
9182,W,0.29,143.42,260616,,,A*77
$GPGSA,A,3,25,02,29,31,12,05,06,,,,,,1.45,1.15,0.89*0A
2,260616,,,A*77
$GPRMC,002226.000,A,4735.5763,N,12222.9183,W,0.17,126.05,260616,,,A*7B
$GPVTG,126.05,T,,M,0.17,N,0.31,K,A*39
9183,W,0.17,126.05,260616,,,A*7B
$GPRMC,002223.000,A,4735.5764,N,12222.9185,W,0.36,136.48,260616,,,A*74
$GPVTG,136.48,T,,M,0.36,N,0.67,K,A*31
9185,W,0.36,136.48,260616,,,A*74
$GPGGA,002231.000,4735.5762,N,12222.9183,W,1,07,1.15,-9.1,M,-17.4,M,,*75
$GPGSA,A,3,25,02,29,31,12,05,06,,,,,,1.45,1.15,0.89*0A
.1,M,-17.4,M,,*75
$GPRMC,002231.000,A,4735.5762,N,12222.9183,W,0.13,231.90,260616,,,A*71
5
$GPVTG,231.90,T,,M,0.13,N,0.23,K,A*37
9183,W,0.13,231.90,260616,,,A*71
5
$GPGSA,A,3,25,02,29,31,12,05,06,,,,,,1.45,1.15,0.89*0A
0,260616,,,A*71
5
$GPGGA,002234.000,4735.5761,N,12222.9182,W,1,07,1.15,-9.1,M,-17.4,M,,*72

$GPGSA,A,3,25,02,29,31,12,05,06,,,,,,1.45,1.15,0.89*0A

$GPRMC,002234.000,A,4735.5761,N,12222.9182,W,0.21,126.76,260616,,,A*7A

$GPVTG,126.76,T,,M,0.21,N,0.40,K,A*3E

$GPGGA,002229.000,4735.5762,N,12222.9182,W,1,07,1.15,-9.1,M,-17.4,M,,*7D
$GPGSA,A,3,25,02,29,31,12,05,06,,,,,,1.45,1.15,0.89*0A
.1,M,-17.4,M,,*7D
$GPRMC,002229.000,A,4735.5762,N,12222.9182,W,0.05,273.25,260616,,,A*76
D
$GPVTG,273.25,T,,M,0.05,N,0.09,K,A*30
9182,W,0.05,273.25,260616,,,A*76
D
$GPGGA,002224.000,4735.5764,N,12222.9184,W,1,07,1.15,-9.1,M,-17.4,M,,*70
$GPGGA,002225.000,4735.5763,N,12222.9183,W,1,07,1.15,-9.1,M,-17.4,M,,*71
$GPGSA,A,3,25,02,29,31,12,05,06,,,,,,1.45,1.15,0.89*0A
.1,M,-17.4,M,,*71
$GPRMC,002225.000,A,4735.5763,N,12222.9183,W,0.17,162.11,260616,,,A*7D
1
$GPVTG,162.11,T,,M,0.17,N,0.31,K,A*3C
9183,W,0.17,162.11,260616,,,A*7D
1
$GPGSA,A,3,25,02,29,31,12,05,06,,,,,,1.45,1.15,0.89*0A
1,260616,,,A*7D
1
$GPRMC,002224.000,A,4735.5764,N,12222.9184,W,0.21,133.66,260616,,,A*7D
1
$GPVTG,133.66,T,,M,0.21,N,0.38,K,A*34
9184,W,0.21,133.66,260616,,,A*7D
1
$GPGGA,002232.000,4735.5761,N,12222.9183,W,1,07,1.15,-9.1,M,-17.4,M,,*75
$GPGGA,002235.000,4735.5760,N,12222.9182,W,1,07,1.15,-9.1,M,-17.4,M,,*72

$GPGSA,A,3,25,02,29,31,12,05,06,,,,,,1.45,1.15,0.89*0A

$GPRMC,002235.000,A,4735.5760,N,12222.9182,W,0.26,101.70,260616,,,A*7E

$GPVTG,101.70,T,,M,0.26,N,0.48,K,A*32

$GPGSA,A,3,25,02,29,31,12,05,06,,,,,,1.45,1.15,0.89*0A
ˇˇˇˇˇˇˇ
$GPGSV,3,1,11,25,71,250,28,02,57,061,37,29,53,293,32,12,52,166,36*70
$GPGSV,3,2,11,05,39,138,38,51,33,159,,31,20,307,28,20,13,180,*78
*70
$GPGSV,3,3,11,06,12,054,19,21,04,234,,09,02,038,*47
0,13,180,*78
*70
$GPRMC,002232.000,A,4735.5761,N,12222.9183,W,0.20,180.27,260616,,,A*74
$GPVTG,180.27,T,,M,0.20,N,0.37,K,A*37
9183,W,0.20,180.27,260616,,,A*74
$GPGGA,002228.000,4735.5762,N,12222.9182,W,1,07,1.15,-9.1,M,-17.4,M,,*7C
$GPGSA,A,3,25,02,29,31,12,05,06,,,,,,1.45,1.15,0.89*0A
.1,M,-17.4,M,,*7C
$GPRMC,002228.000,A,4735.5762,N,12222.9182,W,0.17,326.14,260616,,,A*77
C
$GPGGA,002230.000,4735.5762,N,12222.9182,W,1,07,1.15,-9.1,M,-17.4,M,,*75
$GPGSA,A,3,25,02,29,31,12,05,06,,,,,,1.45,1.15,0.89*0A
.1,M,-17.4,M,,*75
$GPRMC,002230.000,A,4735.5762,N,12222.9182,W,0.33,227.31,260616,,,A*7F
5
$GPVTG,227.31,T,,M,0.33,N,0.62,K,A*3C
9182,W,0.33,227.31,260616,,,A*7F
5
$GPVTG,326.14,T,,M,0.17,N,0.31,K,A*3B
9182,W,0.33,227.31,260616,,,A*7F
5
$GPGGA,002236.000,4735.5760,N,12222.9181,W,1,07,1.15,-9.1,M,-17.4,M,,*72

$GPGSA,A,3,25,02,29,31,12,05,06,,,,,,1.45,1.15,0.89*0A

$GPRMC,002236.000,A,4735.5760,N,12222.9181,W,0.08,68.37,260616,,,A*4F

$GPVTG,68.37,T,,M,0.08,N,0.15,K,A*0B

$GPGGA,002226.000,4735.5763,N,12222.9183,W,1,07,1.15,-9.1,M,-17.4,M,,*72
$GPGGA,002227.000,4735.5762,N,12222.9182,W,1,07,1.15,-9.1,M,-17.4,M,,*73
$GPGSA,A,3,25,02,29,31,12,05,06,,,,,,1.45,1.15,0.89*0A
.1,M,-17.4,M,,*73
$GPGSV,3,1,11,25,71,250,27,02,57,061,35,29,53,293,32,12,52,166,34*7F
*73
$GPGSV,3,2,11,05,39,138,36,51,33,159,,31,20,307,28,20,13,180,*76
*7F
*73
$GPGGA,002233.000,4735.5761,N,12222.9183,W,1,07,1.15,-9.1,M,-17.4,M,,*74
$GPGSA,A,3,25,02,29,31,12,05,06,,,,,,1.45,1.15,0.89*0A
.1,M,-17.4,M,,*74
$GPRMC,002233.000,A,4735.5761,N,12222.9183,W,0.29,120.25,260616,,,A*74
4
$GPVTG,120.25,T,,M,0.29,N,0.53,K,A*34
9183,W,0.29,120.25,260616,,,A*74
4
$GPGSV,3,3,11,06,12,054,19,21,04,234,,09,02,038,*47
0.25,260616,,,A*74
4
$GPRMC,002227.000,A,4735.5762,N,12222.9182,W,0.29,143.42,260616,,,A*77
4
$GPVTG,143.42,T,,M,0.29,N,0.54,K,A*37
9182,W,0.29,143.42,260616,,,A*77
4
$GPGSA,A,3,25,02,29,31,12,05,06,,,,,,1.45,1.15,0.89*0A
2,260616,,,A*77
4
$GPGGA,002237.000,4735.5760,N,12222.9180,W,1,07,1.15,-9.1,M,-17.4,M,,*72

$GPGSA,A,3,25,02,29,31,12,05,06,,,,,,1.45,1.15,0.89*0A

$GPGSV,3,1,11,25,71,250,27,02,57,060,36,29,53,293,31,12,52,166,34*7E

$GPGSV,3,2,11,05,39,138,37,31,20,307,26,20,13,180,,06,12,054,20*76

$GPGSV,3,3,11,21,04,234,,09,02,038,,34,,,*7C

$GPRMC,002237.000,A,4735.5760,N,12222.9180,W,0.37,137.72,260616,,,A*79

$GPVTG,137.72,T,,M,0.37,N,0.68,K,A*37

$GPRMC,002226.000,A,4735.5763,N,12222.9183,W,0.17,126.05,260616,,,A*7B
$GPVTG,126.05,T,,M,0.17,N,0.31,K,A*39
9183,W,0.17,126.05,260616,,,A*7B
$GPRMC,002223.000,A,4735.5764,N,12222.9185,W,0.36,136.48,260616,,,A*74
$GPVTG,136.48,T,,M,0.36,N,0.67,K,A*31
9185,W,0.36,136.48,260616,,,A*74
$GPGGA,002231.000,4735.5762,N,12222.9183,W,1,07,1.15,-9.1,M,-17.4,M,,*75
$GPGSA,A,3,25,02,29,31,12,05,06,,,,,,1.45,1.15,0.89*0A
.1,M,-17.4,M,,*75
$GPRMC,002231.000,A,4735.5762,N,12222.9183,W,0.13,231.90,260616,,,A*71
5
$GPVTG,231.90,T,,M,0.13,N,0.23,K,A*37
9183,W,0.13,231.90,260616,,,A*71
5
$GPGSA,A,3,25,02,29,31,12,05,06,,,,,,1.45,1.15,0.89*0A
0,260616,,,A*71
5
$GPGGA,002234.000,4735.5761,N,12222.9182,W,1,07,1.15,-9.1,M,-17.4,M,,*72
$GPGSA,A,3,25,02,29,31,12,05,06,,,,,,1.45,1.15,0.89*0A
.1,M,-17.4,M,,*72
$GPRMC,002234.000,A,4735.5761,N,12222.9182,W,0.21,126.76,260616,,,A*7A
2
$GPVTG,126.76,T,,M,0.21,N,0.40,K,A*3E
9182,W,0.21,126.76,260616,,,A*7A
2
$GPGGA,002229.000,4735.5762,N,12222.9182,W,1,07,1.15,-9.1,M,-17.4,M,,*7D
$GPGGA,002238.000,4735.5759,N,12222.9179,W,1,07,1.15,-9.1,M,-17.4,M,,*71

$GPGSA,A,3,25,02,29,31,12,05,06,,,,,,1.45,1.15,0.89*0A

$GPRMC,002238.000,A,4735.5759,N,12222.9179,W,0.40,134.83,260616,,,A*77

$GPVTG,134.83,T,,M,0.40,N,0.74,K,A*37

$GPGSA,A,3,25,02,29,31,12,05,06,,,,,,1.45,1.15,0.89*0A
ˇˇˇˇˇˇˇ
$GPRMC,002229.000,A,4735.5762,N,12222.9182,W,0.05,273.25,260616,,,A*76
$GPVTG,273.25,T,,M,0.05,N,0.09,K,A*30
9182,W,0.05,273.25,260616,,,A*76
$GPGGA,002224.000,4735.5764,N,12222.9184,W,1,07,1.15,-9.1,M,-17.4,M,,*70
$GPGGA,002225.000,4735.5763,N,12222.9183,W,1,07,1.15,-9.1,M,-17.4,M,,*71
$GPGSA,A,3,25,02,29,31,12,05,06,,,,,,1.45,1.15,0.89*0A
.1,M,-17.4,M,,*71
$GPRMC,002225.000,A,4735.5763,N,12222.9183,W,0.17,162.11,260616,,,A*7D
1
$GPVTG,162.11,T,,M,0.17,N,0.31,K,A*3C
9183,W,0.17,162.11,260616,,,A*7D
1
$GPGSA,A,3,25,02,29,31,12,05,06,,,,,,1.45,1.15,0.89*0A
1,260616,,,A*7D
1
$GPRMC,002224.000,A,4735.5764,N,12222.9184,W,0.21,133.66,260616,,,A*7D
1
$GPVTG,133.66,T,,M,0.21,N,0.38,K,A*34
9184,W,0.21,133.66,260616,,,A*7D
1
$GPGGA,002232.000,4735.5761,N,12222.9183,W,1,07,1.15,-9.1,M,-17.4,M,,*75
$GPGGA,002239.000,4735.5759,N,12222.9178,W,1,07,1.15,-9.1,M,-17.4,M,,*71

$GPGSA,A,3,25,02,29,31,12,05,06,,,,,,1.45,1.15,0.89*0A

$GPRMC,002239.000,A,4735.5759,N,12222.9178,W,0.18,74.35,260616,,,A*42

$GPVTG,74.35,T,,M,0.18,N,0.34,K,A*06

$GPGGA,002235.000,4735.5760,N,12222.9182,W,1,07,1.15,-9.1,M,-17.4,M,,*72
$GPGSA,A,3,25,02,29,31,12,05,06,,,,,,1.45,1.15,0.89*0A
.1,M,-17.4,M,,*72
$GPRMC,002235.000,A,4735.5760,N,12222.9182,W,0.26,101.70,260616,,,A*7E
2
$GPVTG,101.70,T,,M,0.26,N,0.48,K,A*32
9182,W,0.26,101.70,260616,,,A*7E
2
$GPGSA,A,3,25,02,29,31,12,05,06,,,,,,1.45,1.15,0.89*0A
0,260616,,,A*7E
2
$GPGSV,3,1,11,25,71,250,28,02,57,061,37,29,53,293,32,12,52,166,36*70
E
2
$GPGSV,3,2,11,05,39,138,38,51,33,159,,31,20,307,28,20,13,180,*78
*70
E
2
$GPGSV,3,3,11,06,12,054,19,21,04,234,,09,02,038,*47
0,13,180,*78
*70
E
2
$GPRMC,002232.000,A,4735.5761,N,12222.9183,W,0.20,180.27,260616,,,A*74
◊¯?/cè¿?&ñ‘$GPVTG,180.27,T,,M,0.20,N,0.37,K,A*37
9183,W,0.20,180.27,260616,,,A*74
◊¯?/cè¿?&ñ‘$GPGGA,002228.000,4735.5762,N,12222.9182,W,1,07,1.15,-9.1,M,-17.4,M,,*7C
?/cè¿?&ñ‘$GPGSA,A,3,25,02,29,31,12,05,06,,,,,,1.45,1.15,0.89*0A
.1,M,-17.4,M,,*7C
?/cè¿?&ñ‘$GPRMC,002228.000,A,4735.5762,N,12222.9182,W,0.17,326.14,260616,,,A*77
C
?/cè¿?&ñ‘$GPGGA,002230.000,4735.5762,N,12222.9182,W,1,07,1.15,-9.1,M,-17.4,M,,*75
?/cè¿?&ñ‘$GPGGA,002240.000,4735.5759,N,12222.9177,W,1,07,1.15,-9.1,M,-17.4,M,,*70

$GPGSA,A,3,25,02,29,31,12,05,06,,,,,,1.45,1.15,0.89*0A

$GPRMC,002240.000,A,4735.5759,N,12222.9177,W,0.09,199.14,260616,,,A*72

$GPVTG,199.14,T,,M,0.09,N,0.16,K,A*37

$GPGSA,A,3,25,02,29,31,12,05,06,,,,,,1.45,1.15,0.89*0A
ˇˇˇˇˇˇˇ
$GPRMC,002230.000,A,4735.5762,N,12222.9182,W,0.33,227.31,260616,,,A*7F
$GPVTG,227.31,T,,M,0.33,N,0.62,K,A*3C
9182,W,0.33,227.31,260616,,,A*7F
$GPVTG,326.14,T,,M,0.17,N,0.31,K,A*3B
9182,W,0.33,227.31,260616,,,A*7F
$GPGGA,002236.000,4735.5760,N,12222.9181,W,1,07,1.15,-9.1,M,-17.4,M,,*72
$GPGSA,A,3,25,02,29,31,12,05,06,,,,,,1.45,1.15,0.89*0A
.1,M,-17.4,M,,*72
$GPRMC,002236.000,A,4735.5760,N,12222.9181,W,0.08,68.37,260616,,,A*4F
72
$GPVTG,68.37,T,,M,0.08,N,0.15,K,A*0B
.9181,W,0.08,68.37,260616,,,A*4F
72
$GPGGA,002226.000,4735.5763,N,12222.9183,W,1,07,1.15,-9.1,M,-17.4,M,,*72
$GPGGA,002227.000,4735.5762,N,12222.9182,W,1,07,1.15,-9.1,M,-17.4,M,,*73
$GPGSA,A,3,25,02,29,31,12,05,06,,,,,,1.45,1.15,0.89*0A
.1,M,-17.4,M,,*73
$GPGSV,3,1,11,25,71,250,27,02,57,061,35,29,53,293,32,12,52,166,34*7F
*73
$GPGSV,3,2,11,05,39,138,36,51,33,159,,31,20,307,28,20,13,180,*76
*7F
*73
$GPGGA,002241.000,4735.5759,N,12222.9177,W,1,07,1.15,-9.1,M,-17.4,M,,*71

$GPGSA,A,3,25,02,29,31,12,05,06,,,,,,1.45,1.15,0.89*0A

$GPRMC,002241.000,A,4735.5759,N,12222.9177,W,0.18,104.32,260616,,,A*73

$GPVTG,104.32,T,,M,0.18,N,0.32,K,A*31

$GPGGA,002233.000,4735.5761,N,12222.9183,W,1,07,1.15,-9.1,M,-17.4,M,,*74
$GPGSA,A,3,25,02,29,31,12,05,06,,,,,,1.45,1.15,0.89*0A
.1,M,-17.4,M,,*74
$GPRMC,002233.000,A,4735.5761,N,12222.9183,W,0.29,120.25,260616,,,A*74
4
$GPVTG,120.25,T,,M,0.29,N,0.53,K,A*34
9183,W,0.29,120.25,260616,,,A*74
4
$GPGSV,3,3,11,06,12,054,19,21,04,234,,09,02,038,*47
0.25,260616,,,A*74
4
$GPRMC,002227.000,A,4735.5762,N,12222.9182,W,0.29,143.42,260616,,,A*77
4
$GPVTG,143.42,T,,M,0.29,N,0.54,K,A*37
9182,W,0.29,143.42,260616,,,A*77
4
$GPGSA,A,3,25,02,29,31,12,05,06,,,,,,1.45,1.15,0.89*0A
2,260616,,,A*77
4
$GPGGA,002237.000,4735.5760,N,12222.9180,W,1,07,1.15,-9.1,M,-17.4,M,,*72
$GPGSA,A,3,25,02,29,31,12,05,06,,,,,,1.45,1.15,0.89*0A
.1,M,-17.4,M,,*72
$GPGSV,3,1,11,25,71,250,27,02,57,060,36,29,53,293,31,12,52,166,34*7E
*72
$GPGSV,3,2,11,05,39,138,37,31,20,307,26,20,13,180,,06,12,054,20*76
E
*72
$GPGSV,3,3,11,21,04,234,,09,02,038,,34,,,*7C
,180,,06,12,054,20*76
E
*72
$GPRMC,002237.000,A,4735.5760,N,12222.9180,W,0.37,137.72,260616,,,A*79
2
$GPGGA,002242.000,4735.5758,N,12222.9177,W,1,07,1.15,-9.1,M,-17.4,M,,*73

$GPGSA,A,3,25,02,29,31,12,05,06,,,,,,1.45,1.15,0.89*0A

$GPGSV,3,1,11,25,71,250,26,02,57,060,37,29,53,293,33,12,52,166,36*7E

$GPGSV,3,2,11,05,39,138,38,31,20,307,32,20,13,180,,06,12,054,20*7C

$GPGSV,3,3,11,21,04,234,,09,02,037,,34,,,*73

$GPRMC,002242.000,A,4735.5758,N,12222.9177,W,0.38,120.01,260616,,,A*75

$GPVTG,120.01,T,,M,0.38,N,0.70,K,A*33

$GPVTG,137.72,T,,M,0.37,N,0.68,K,A*37
ˇˇˇˇˇˇˇˇˇˇˇˇˇˇˇˇˇˇˇˇˇˇˇˇ
$GPRMC,002226.000,A,4735.5763,N,12222.9183,W,0.17,126.05,260616,,,A*7B
$GPVTG,126.05,T,,M,0.17,N,0.31,K,A*39
9183,W,0.17,126.05,260616,,,A*7B
$GPRMC,002223.000,A,4735.5764,N,12222.9185,W,0.36,136.48,260616,,,A*74
$GPVTG,136.48,T,,M,0.36,N,0.67,K,A*31
9185,W,0.36,136.48,260616,,,A*74
$GPGGA,002231.000,4735.5762,N,12222.9183,W,1,07,1.15,-9.1,M,-17.4,M,,*75
$GPGSA,A,3,25,02,29,31,12,05,06,,,,,,1.45,1.15,0.89*0A
.1,M,-17.4,M,,*75
$GPRMC,002231.000,A,4735.5762,N,12222.9183,W,0.13,231.90,260616,,,A*71
5
$GPVTG,231.90,T,,M,0.13,N,0.23,K,A*37
9183,W,0.13,231.90,260616,,,A*71
5
$GPGSA,A,3,25,02,29,31,12,05,06,,,,,,1.45,1.15,0.89*0A
0,260616,,,A*71
5
$GPGGA,002234.000,4735.5761,N,12222.9182,W,1,07,1.15,-9.1,M,-17.4,M,,*72
$GPGSA,A,3,25,02,29,31,12,05,06,,,,,,1.45,1.15,0.89*0A
.1,M,-17.4,M,,*72
$GPRMC,002234.000,A,4735.5761,N,12222.9182,W,0.21,126.76,260616,,,A*7A
2
$GPVTG,126.76,T,,M,0.21,N,0.40,K,A*3E
9182,W,0.21,126.76,260616,,,A*7A
2
$GPGGA,002243.000,4735.5758,N,12222.9175,W,1,07,1.15,-9.1,M,-17.4,M,,*70

$GPGSA,A,3,25,02,29,31,12,05,06,,,,,,1.45,1.15,0.89*0A

$GPRMC,002243.000,A,4735.5758,N,12222.9175,W,0.11,201.50,260616,,,A*79

$GPVTG,201.50,T,,M,0.11,N,0.20,K,A*39

$GPGGA,002229.000,4735.5762,N,12222.9182,W,1,07,1.15,-9.1,M,-17.4,M,,*7D
$GPGGA,002238.000,4735.5759,N,12222.9179,W,1,07,1.15,-9.1,M,-17.4,M,,*71
$GPGSA,A,3,25,02,29,31,12,05,06,,,,,,1.45,1.15,0.89*0A
.1,M,-17.4,M,,*71
$GPRMC,002238.000,A,4735.5759,N,12222.9179,W,0.40,134.83,260616,,,A*77
1
$GPVTG,134.83,T,,M,0.40,N,0.74,K,A*37
9179,W,0.40,134.83,260616,,,A*77
1
$GPGSA,A,3,25,02,29,31,12,05,06,,,,,,1.45,1.15,0.89*0A
3,260616,,,A*77
1
$GPRMC,002229.000,A,4735.5762,N,12222.9182,W,0.05,273.25,260616,,,A*76
1
$GPVTG,273.25,T,,M,0.05,N,0.09,K,A*30
9182,W,0.05,273.25,260616,,,A*76
1
$GPGGA,002224.000,4735.5764,N,12222.9184,W,1,07,1.15,-9.1,M,-17.4,M,,*70
$GPGGA,002225.000,4735.5763,N,12222.9183,W,1,07,1.15,-9.1,M,-17.4,M,,*71
$GPGSA,A,3,25,02,29,31,12,05,06,,,,,,1.45,1.15,0.89*0A
.1,M,-17.4,M,,*71
$GPRMC,002225.000,A,4735.5763,N,12222.9183,W,0.17,162.11,260616,,,A*7D
1
$GPVTG,162.11,T,,M,0.17,N,0.31,K,A*3C
9183,W,0.17,162.11,260616,,,A*7D
1
$GPGGA,002244.000,4735.5758,N,12222.9175,W,1,07,1.15,-9.1,M,-17.4,M,,*77

$GPGSA,A,3,25,02,29,31,12,05,06,,,,,,1.45,1.15,0.89*0A

$GPRMC,002244.000,A,4735.5758,N,12222.9175,W,0.21,223.79,260616,,,A*76

$GPVTG,223.79,T,,M,0.21,N,0.40,K,A*37

$GPGSA,A,3,25,02,29,31,12,05,06,,,,,,1.45,1.15,0.89*0A
ˇˇˇˇˇˇˇ
$GPRMC,002224.000,A,4735.5764,N,12222.9184,W,0.21,133.66,260616,,,A*7D
$GPVTG,133.66,T,,M,0.21,N,0.38,K,A*34
9184,W,0.21,133.66,260616,,,A*7D
$GPGGA,002232.000,4735.5761,N,12222.9183,W,1,07,1.15,-9.1,M,-17.4,M,,*75
$GPGGA,002239.000,4735.5759,N,12222.9178,W,1,07,1.15,-9.1,M,-17.4,M,,*71
$GPGSA,A,3,25,02,29,31,12,05,06,,,,,,1.45,1.15,0.89*0A
.1,M,-17.4,M,,*71
$GPRMC,002239.000,A,4735.5759,N,12222.9178,W,0.18,74.35,260616,,,A*42
71
$GPVTG,74.35,T,,M,0.18,N,0.34,K,A*06
.9178,W,0.18,74.35,260616,,,A*42
71
$GPGGA,002235.000,4735.5760,N,12222.9182,W,1,07,1.15,-9.1,M,-17.4,M,,*72
$GPGSA,A,3,25,02,29,31,12,05,06,,,,,,1.45,1.15,0.89*0A
.1,M,-17.4,M,,*72
$GPRMC,002235.000,A,4735.5760,N,12222.9182,W,0.26,101.70,260616,,,A*7E
2
$GPVTG,101.70,T,,M,0.26,N,0.48,K,A*32
9182,W,0.26,101.70,260616,,,A*7E
2
$GPGSA,A,3,25,02,29,31,12,05,06,,,,,,1.45,1.15,0.89*0A
0,260616,,,A*7E
2
$GPGGA,002245.000,4735.5757,N,12222.9176,W,1,07,1.15,-9.1,M,-17.4,M,,*7A

$GPGSA,A,3,25,02,29,31,12,04
9184,W,0.21,133.66,260616,,,A*7D
 o$GPGGA,002232.000,4735.5761,N,12222.9183,W,1,07,1.15,-9.1,M,-17.4,M,,*75
$GPGGA,002239.000,4735.5759,N,12222.9178,W,1,07,1.15,-9.1,M,-17.4,M,,*71
$GPGSA,A,3,25,02,29,31,12,05,06,,,,,,1.45,1.15,0.89*0A
.1,M,-17.4,M,,*71
$GPGGA,002252.000,4735.5756,N,12222.9176,W,1,07,1.14,-9.1,M,-17.4,M,,*7C

$GPGSA,A,3,25,02,29,31,12,05,06,,,,,,1.45,1.14,0.89*0B

$GPGSV,3,1,11,25,71,250,27,02,57,060,36,29,53,293,33,12,52,166,36*7E

$GPGSV,3,2,11,05,39,138,37,31,20,307,30,20,13,180,,06,12,054,19*7B

$GPGSV,3,3,11,21,04,234,,09,02,037,,36,,,*71

$GPRMC,002252.000,A,4735.5756,N,12222.9176,W,0.15,94.72,260616,,,A*4E

$GPVTG,94.72,T,,M,0.15,N,0.29,K,A*0A

$GPRMC,002239.000,A,4735.5759,N,12222.9178,W,0.18,74.35,260616,,,A*42
$GPVTG,74.35,T,,M,0.18,N,0.34,K,A*06
.9178,W,0.18,74.35,260616,,,A*42
$GPGGA,002235.000,4735.5760,N,12222.9182,W,1,07,1.15,-9.1,M,-17.4,M,,*72
$GPGSA,A,3,25,02,29,31,12,05,06,,,,,,1.45,1.15,0.89*0A
ú$GPRMC,002235.000,A,4735.5760,N,12222.9182,W,0.26,101.70,260616,,,A*7E
2o$GPVTG,101.70,T,,M,0.26,N,0.48,K,A*32
9182,W,0.26,101.70,260616,,,A*7E
ú$GPGGA,002245.000,4735.5757,N,12222.9176,W,1,07,1.15,-9.1,M,-17.4,M,,*7A
$GPGGA,002232.000,4735.5761,N,12222.9183,W,1,07,1.15,-9.1,M,-17.4,M,,*75
$GPGGA,002239.000,4735.5759,N,12222.9178,W,1,07,1.15,-9.1,M,-17.4,M,,*71
$GPVTG,101.70,T,,M,0.26,N,0.48,K,A*32
.45,1^Cú$GPRMC,002235.000,A,4735.5760,N,12222.9182,W,0.26,101.70,260616,,,A*7E
yª$GPGGA,002253.000,4735.5756,N,12222.9175,W,1,07,1.15,-9.1,M,-17.4,M,,*7F

$GPGSA,A,3,25,02,29,31,12,05,06,,,,,,1.45,1.15,0.89*0A

$GPRMC,002253.000,A,4735.5756,N,12222.9175,W,0.18,139.35,260616,,,A*74

$GPVTG,139.35,T,,M,0.18,N,0.33,K,A*39

]$GPGGA,002239.000,4735.5759,N,12222.9178,W,1,07,1.15,-9.1,M,-17.4,M,,*71
$GPVTG,101.70,T,,M,0.26,N,0.48,K,A*32
$GPRMC,002235.000,A,4735.5760,N,12222.9182,W,0.26,101.70,260616,,,A*7E
1o$GPGGA,002253.000,4735.5756,N,12222.9175,W,1,07,1.15,-9.1,M,-17.4,M,,*7F
$GPGSA,A,3,25,02,29,31,12,05,06,,,,,,1.45,1.15,0.89*0A
D˝ú$GPRMC,002253.000,A,4735.5756,N,12222.9175,W,0.18,139.35,260616,,,A*74
Fo$GPVTG,139.35,T,,M,0.18,N,0.33,K,A*39
$GPVTG,101.70,T,,M,0.26,N,0.48,K,A*32
83,W,1,07,1.15,-9.1,M,^C]$GPGGA,002239.000,4735.5759,N,12222.9178,W,1,07,1.15,-9.1,M,-17.4,M,,*71
X4$GPRMC,002235.000,A,4735.5760,N,12222.9182,W,0.26,101.70,260616,,,A*7E
02239.000,4735.5759,N,12222.9178,W,1,07,1.15,-9.1,M,-17.4,M,,*71
X4$GPGGA,002254.000,4735.5756,N,12222.9174,W,1,07,1.14,-9.0,M,-17.4,M,,*79

$GPGSA,A,3,25,02,29,31,12,05,06,,,,,,1.45,1.14,0.89*0B

$GPRMC,002254.000,A,4735.5756,N,12222.9174,W,0.30,133.95,260616,,,A*78

$GPVTG,133.95,T,,M,0.30,N,0.55,K,A*33

$GPGGA,002253.000,4735.5756,N,12222.9175,W,1,07,1.15,-9.1,M,-17.4,M,,*7F
$GPGSA,A,3,25,02,29,31,12,05,06,,,,,,1.45,1.15,0.89*0A
$GPRMC,002253.000,A,4735.5756,N,12222.9175,W,0.18,139.35,260616,,,A*74
Fo$GPVTG,139.35,T,,M,0.18,N,0.33,K,A*39
$GPVTG,101.70,T,,M,0.26,N,0.48,K,A*32
$GPGGA,002239.000,4735.5759,N,12222.9178,W,1,07,1.15,-9.1,M,-17.4,M,,*71
$GPRMC,002235.000,A,4735.5760,N,12222.9182,W,0.26,101.70,260616,,,A*7E
1o$GPGGA,002254.000,4735.5756,N,12222.9174,W,1,07,1.14,-9.0,M,-17.4,M,,*79
$GPGSA,A,3,25,02,29,31,12,05,06,,,,,,1.45,1.14,0.89*0B
ú$GPRMC,002254.000,A,4735.5756,N,12222.9174,W,0.30,133.95,260616,,,A*78
9o$GPVTG,133.95,T,,M,0.30,N,0.55,K,A*33
9174,W,0.30,133.95,260616,,,A*78
9o$GPGGA,002253.000,4735.5756,N,12222.9175,W,1,07,1.15,-9.1,M,-17.4,M,,*7F
$GPGSA,A,3,25,02,29,31,12,05,06,,,,,,1.45,1.15,0.89*0A
.1,M,-17.4,M,,*7F
$GPRMC,002253.000,A,4735.5756,N,12222.9175,W,0.18,139.35,260616,,,A*74
F
$GPGGA,002255.000,4735.5755,N,12222.9174,W,1,07,1.14,-9.0,M,-17.4,M,,*7B

$GPGSA,A,3,25,02,29,31,12,05,06,,,,,,1.45,1.14,0.89*0B

$GPRMC,002255.000,A,4735.5755,N,12222.9174,W,0.15,156.81,260616,,,A*7B

$GPVTG,156.81,T,,M,0.15,N,0.28,K,A*38

$GPVTG,139.35,T,,M,0.18,N,0.33,K,A*39
ˇˇˇˇˇˇˇˇˇˇˇˇˇˇˇˇˇˇˇˇˇˇˇˇ
$GPVTG,101.70,T,,M,0.26,N,0.48,K,A*32
ˇˇˇˇˇˇˇˇˇˇˇˇˇˇˇˇˇˇˇˇˇˇˇˇ
$GPGGA,002239.000,4735.5759,N,12222.9178,W,1,07,1.15,-9.1,M,-17.4,M,,*71
$GPRMC,002235.000,A,4735.5760,N,12222.9182,W,0.26,101.70,260616,,,A*7E
1o$GPGGA,002254.000,4735.5756,N,12222.9174,W,1,07,1.14,-9.0,M,-17.4,M,,*79
ú$GPRMC,002254.000,A,4735.5756,N,12222.9174,W,0.30,133.95,260616,,,A*78
9o$GPVTG,133.95,T,,M,0.30,N,0.55,K,A*33
$GPGGA,002253.000,4735.5756,N,12222.9175,W,1,07,1.15,-9.1,M,-17.4,M,,*7F
ú$GPRMC,002253.000,A,4735.5756,N,12222.9175,W,0.18,139.35,260616,,,A*74
Fo$GPGGA,002255.000,4735.5755,N,12222.9174,W,1,07,1.14,-9.0,M,-17.4,M,,*7B
$GPGSA,A,3,25,02,29,31,12,05,06,,,,,,1.45,1.14,0.89*0B
.0,M,-17.4,M,,*7B
$GPGGA,002256.000,4735.5755,N,12222.9173,W,1,07,1.15,-9.0,M,-17.4,M,,*7E

$GPGSA,A,3,25,02,29,31,12,05,06,,,,,,1.45,1.15,0.89*0A

$GPRMC,002256.000,A,4735.5755,N,12222.9173,W,0.18,297.35,260616,,,A*73

$GPVTG,297.35,T,,M,0.18,N,0.33,K,A*3E

$GPRMC,002255.000,A,4735.5755,N,12222.9174,W,0.15,156.81,260616,,,A*7B
$GPVTG,156.81,T,,M,0.15,N,0.28,K,A*38
9174,W,0.15,156.81,260616,,,A*7B
$GPVTG,139.35,T,,M,0.18,N,0.33,K,A*39
$GPVTG,101.70,T,,M,0.26,N,0.48,K,A*32
$GPGGA,002239.000,4735.5759,N,12222.9178,W,1,07,1.15,-9.1,M,-17.4,M,,*71
$GPRMC,002235.000,A,4735.5760,N,12222.9182,W,0.26,101.70,260616,,,A*7E
1o$GPVTG,133.95,T,,M,0.30,N,0.55,K,A*33
$GPGGA,002253.000,4735.5756,N,12222.9175,W,1,07,1.15,-9.1,M,-17.4,M,,*7F
$GPGSA,A,3,25,02,29,31,12,05,06,,,,,,1.45,1.15,0.89*0A^Cú$GPRMC,002253.000,A,4735.5756,N,12222.9175,W,0.18,139.35,260616,,,A*74
$GPGGA,002255.000,4735.5755,N,12222.9174,W,1,07,1.14,-9.0,M,-17.4,M,,*7B
0,A,4735.5756,N,12222.9175,W,0.18,139.35,260616,,,A*74
$GPGSA,A,3,25,02,29,31,12,05,06,,,,,,1.45,1.14,0.89*0B
.0,M,-17.4,M,,*7B
0,A,4735.5756,N,12222.9175,W,0.18,139.35,260616,,,A*74
$GPGGA,002256.000,4735.5755,N,12222.9173,W,1,07,1.15,-9.0,M,-17.4,M,,*7E
0,A,4735.5756,N,12222.9175,W,0.18,139.35,260616,,,A*74
$GPGGA,002257.000,4735.5755,N,12222.9174,W,1,07,1.15,-9.0,M,-17.4,M,,*78

$GPGSA,A,3,25,02,29,31,12,05,06,,,,,,1.45,1.15,0.89*0A

$GPGSV,3,1,11,25,70,249,27,02,57,060,35,29,53,293,33,12,52,166,37*75

$GPGSV,3,2,11,05,39,138,36,31,20,307,29,20,13,180,,06,12,054,22*7A

$GPGSV,3,3,11,21,04,234,,09,02,037,,38,,,*7F

$GPRMC,002257.000,A,4735.5755,N,12222.9174,W,0.19,177.02,260616,,,A*7D

$GPVTG,177.02,T,,M,0.19,N,0.34,K,A*31

$GPGSA,A,3,25,02,29,31,12,05,06,,,,,,1.45,1.15,0.89*0A
ˇˇˇˇˇˇˇ
$GPRMC,002256.000,A,4735.5755,N,12222.9173,W,0.18,297.35,260616,,,A*73
$GPVTG,297.35,T,,M,0.18,N,0.33,K,A*3E
9173,W,0.18,297.35,260616,,,A*73
$GPRMC,002255.000,A,4735.5755,N,12222.9174,W,0.15,156.81,260616,,,A*7B
